id;nome;cep;endereco;latitude;longitude
14816;FORT JD LJ 379;88095500;RUA ELESBAO PINTO DA LUZ, 1183, FLORIANOPOLIS, BRASIL;-27.5821988;-48.6011444
15117;FORT BLUMENA LJ 480;89052381;VIA EXPRESSA PAUL FRITZ KUEHNRICH, 1400, BLUMENAU, BRASIL;-26.886757;-49.068439
15579;FORT NAVEGANTES LJ37;88370232;RUA: VEREADOR NEREU LIBERATO NUNES, 571, NAVEGANTES, BRASIL;-26.8883641;-48.6540353
17081;FORT ARARANGUA;88905018;RUA PORFIRIO LOPES DE AGUIAR, 635, ARARANGUA, BRASIL;-28.9433434;-49.4890319
18247;FORT RIO TAVARES;88048300;RODOVIA DOUTOR ANTONIO LUIZ MOURA GONZAG, FLORIANOPOLIS, BRASIL;-27.6481528;-48.4791275
15705;ATACADAO JOINVILLE;89216500;RODOVIA BR 101 KM 40, 0, JOINVILLE, BRASIL;-26.2972986;-48.8838582
15806;ATACADAO FLORIPA;88070120;AV JUSCELINO KUBITSCHEK DE OLIVEIRA, 469, FLORIANOPOLIS, BRASIL;-27.596086;-48.5786311
410;BRASIL ATAC BARREIRO;88111130;RUA ARNOLDO PEDRO MEIRA, 547, SAO JOSE, BRASIL;-27.5686809;-48.6216697
420;BRASIL ATACADISTA;89160113;RUA ARISTILIANO RAMOS,1377, RIO DO SUL, BRASIL;-27.2136059;-49.6386227
14017;BRASIL AT RIO DO SU;89163610;EST BOA ESPERANCA, 240, RIO DO SUL, BRASIL;-27.2079428;-49.6541031
12745;MUFFATO MAX CIC;81270200;AV JUSCELINO KUBITSCHEK DE OLIVEIRA 2651, CURITIBA, BRASIL;-25.4897231;-49.3448195
16359;COMBO SCO JOSE LJ 04;88110639;RUA MENINO JULIO CESAR, SN, SAO JOSE, BRASIL;-27.5739607;-48.6137741
17371;AU AU CENTRAL;80430180;AV DOUTOR CARLOS DE CARVALHO, 1000, CURITIBA, BRASIL;-25.4365281;-49.2888797
17373;AU AU LANCHES;80730200;AL DOUTOR CARLOS DE CARVALHO, 1011, CURITIBA, BRASIL;-25.4373475;-49.2909346
17804;AU AU - ARENAS BATEL;80730201;AL DOUTOR CARLOS DE CARVALHO, 990, CURITIBA, BRASIL;-25.4369603;-49.289942
18363;AU AU BATEL;80730200;ALD DOUTOR CARLOS DE CARVALHO, 1011, CURITIBA, BRASIL;-25.4373475;-49.2909346
4538;ANGELONI BIGORRILHO;80730201;ALAMEDA DR CARLOS DE CARVALHO, 2050, CURITIBA, BRASIL;-25.4369603;-49.289942
18301;SUPERMERCADOS ANGELO;88036580;RUA PROF SIMAO JOSE HESS, 190, FLORIANOPOLIS, BRASIL;-27.5960265;-48.519412
1146;CONDOR LJ13 SITIO C.;81910000;RUA IZAAC FERREIRA DA CRUZ, 3868, CURITIBA, BRASIL;-25.5356223;-49.2711948
2088;CONDOR LJ24 STA CAND;82620300;AV MARECHAL MASCARENHAS DE MORAES, 312, CURITIBA, BRASIL;-25.3841001;-49.2165209
2100;CONDOR LJ09 LONDRINA;86026080;RUA: RIO GRANDE DO SUL,50, LONDRINA, BRASIL;-23.3081884;-51.1538918
2108;CONDOR LJ18 CENT. PG;84010000;RUA DR VICENTE MACHADO, 98, PONTA GROSSA, BRASIL;-25.0950675;-50.1605139
3836;CONDOR CAMPO LARGO;83601010;RUA XAVIER DA SILVA, 657, CAMPO LARGO, BRASIL;-25.4574871;-49.5286403
4307;CONDOR LJ32 UVARANAS;84025000;AV GENERAL CARLOS CAVALCANTI, 707, PONTA GROSSA, BRASIL;-25.0926256;-50.1200809
4429;CONDOR LJ27 NV. MUND;81050080;RUA VISCONDE DE SERRO FRIO, 46, CURITIBA, BRASIL;-25.4863003;-49.3013936
5867;CONDOR JOINVILLE;83020000;RUA JOINVILLE, 3001, SAO JOSE DOS PINHAIS, BRASIL;-25.5518716;-49.1928124
16263;GIGANTE ATACADISTA;81270200;AV JUSCELINO KUBITSCHEK DE OLIVEIRA, 229, CURITIBA, BRASIL;-25.4897231;-49.3448195
16509;CONDOR MARINGA LJ60;87015001;AV DOUTOR LUIZ TEIXEIRA MENDES, 850, MARINGA, BRASIL;-23.4344397;-51.9645659
401;IMPERATRIZ KOBRASOL;88102101;DELAMAR JOSE DA SILVA, SN, SAO JOSE, BRASIL;-27.5939238;-48.6163854
707;IMPERATRIZ CAMBORIU;88330000;AV ALBERTO SANTOS DUMONT, SN, BALNEARIO CAMBORIU, BRASIL;45.60634;9.30797
12473;IMPERATRIZ GAMA DECA;88015240;AV PROF OTHON GAMA DECA, 771, FLORIANOPOLIS, BRASIL;-27.5884925;-48.5513308
18125;SUPERMERCADOS IMPERA;88062120;RUA MANOEL SEVERINO DE OLIVEIRA, 637, FLORIANOPOLIS, BRASIL;-27.6028294;-48.4687203
18312;BRASIL ATAC PORTO BE;88210000;AV GOVERNADOR CELSO RAMOS, 2337, PORTO BELO, BRASIL;-27.15711;-48.57559
1884;BIG - IGUATEMI;88035000;AV. MADRE BENVENUTA, 687 LOJA 11, FLORIANOPOLIS, BRASIL;-27.5893692;-48.5087345
3189;BIG - PORTAO;80320300;AV. PRESIDENTE ARTHUR BERNARDES, N. 2200, CURITIBA, BRASIL;-25.4622004;-49.3013239
3209;MERCADORAMA LJ 826;80240000;AV. 7 DE SETEMBRO, N. 4568, CURITIBA, BRASIL;-25.440189;-49.2735944
3293;MERCADORAMA LJ 065;82515000;AV. PREF. ERASTO GAERTNER, N. 2194, CURITIBA, BRASIL;-25.3977996;-49.2345857
5291;TODO DIA P. GROSSA;84061000;RUA NICOLAU KLUPPEL NETO, 1529, PONTA GROSSA, BRASIL;-25.0960873;-50.2002197
15131;CARREFOUR LONDRINA L;86050901;ROD CELSO GARCIA KM377, 377, 5500, LONDRINA, BRASIL;-23.313756;-51.2137635
15132;CARREFOUR PINHAIS CW;83331330;ROD DEPUTADO JOAO LEOPOLDO JACOMEL,10154, PINHAIS, BRASIL;-25.4342107;-49.1763892
4367;MUFFATO TARUMA;82530230;AV VICTOR FERREIRA DO AMARAL, 1088, CURITIBA, BRASIL;-25.4292786;-49.2219818
4306;TOZETTO UVARAMAS;84025000;AV GENERAL CARLOS CAVALCANTI, 853, PONTA GROSSA, BRASIL;-25.0926256;-50.1200809
12460;FESTVAL BIGORRILHO;80730400;R DESEM OTAVIO DO AMARAL,576, CURITIBA, BRASIL;-25.4267713;-49.2962294
16152;FESTVAL LINHA VERDE;81690200;ROD BR CENTO E DEZESSEIS, 13807, CURITIBA, BRASIL;-25.4842994;-49.266669
17113;FESTVAL DARK STORE;80730201;AL DOUTOR CARLOS DE CARVALHO, 1652, CURITIBA, BRASIL;-25.4369603;-49.289942
18161;FESTVAL VILA IZABEL;80320345;AV PRESIDENTE ARTHUR DA SILVA BERNARDES,, CURITIBA, BRASIL;-25.45758;-49.30264
18163;FESTVAL CABRAL LJ36;80035120;RUA DEPUTADO JOAQUIM JOSE PEDROSA, 300, CURITIBA, BRASIL;-25.4063778;-49.2510277
6270;GIASSI AREIAS LJ 12;88113600;RUA ALVARO MEDEIROS SANTIAGO, 301, SAO JOSE, BRASIL;-27.5514024;-48.6283209
17087;GIASSI MORRO DA FUMA;88830000;AVENIDA CELESTE RECCO, 940, MORRO DA FUMACA, BRASIL;-28.65179;-49.20626
1707;KOCH ITAPEMA 04;88220000;MARGINAL LESTE BR 101, 5,335, ITAPEMA, BRASIL;-27.09095;-48.61239
18025;SUPERMERCADOS KOCH81;88340152;RUA VIRGILIO RODRIQUES PEREIRA, 47, BALNEARIO CAMBORIU, BRASIL;-27.022436;-48.6584439
1155;JACOMAR BOQUEIRAO;81750450;RUA DES ANTONIO DE PAULA, 2765, CURITIBA, BRASIL;-25.5117406;-49.236536
4187;JACOMAR COSTEIRA;83010290;AL. ARPO, 1929, SAO JOSE DOS PINHAIS, BRASIL;-25.5560234;-49.1708063
14595;JACOMAR CAMPO SANTAN;81490380;R. URIEL NOGUEIRA DOS SANTOS, 632, CURITIBA, BRASIL;-25.598856;-49.3268718
15081;JACOMAR EUCALIPTOS;83820071;RUA DAS ARAUCARIAS, 653, FAZENDA RIO GRANDE, BRASIL;-25.6451025;-49.3050263
16313;JACOMAR FAZENDA RIO;83830170;AV SAO PAULO, 331, FAZENDA RIO GRANDE, BRASIL;-25.6736168;-49.3169601
18175;JACOMAR GANCHINHO;81935000;RUA EDUARDO PINTO DA ROCHA, 3225, CURITIBA, BRASIL;-25.5572718;-49.2548473
11981;BISTEK-SJ PRAIA COM;88103600;RUA DR CONSTANCIO KRUMMEL, 2183, SAO JOSE, BRASIL;-27.6077066;-48.6271738
12526;BISTEK-FLP MORRO;88066000;RUA FRANCISCO THOMAZ DOS SANTOS, 1249, FLORIANOPOLIS, BRASIL;-27.7167145;-48.5067993
18208;BISTEK ABRAAO;88085175;AVENIDA PATRICIO CALDEIRA DE ANDRADA, 0, FLORIANOPOLIS, BRASIL;-27.605902;-48.5927434
16084;VIA ATACADISTA BENTO;95700382;RUA 10 DE NOVEMBRO, 432, BENTO GONCALVES, BRASIL;-29.1740027;-51.5179092
16764;VIA ATACADISTA CAXIA;95013130;RUA CRISTOFORO RANDON, 518, CAXIAS DO SUL, BRASIL;-29.1627984;-51.1949966
18199;PASSARELA EFAPI;89801000;AV SENADOR ATILIO FRANCISCO XAVIER FONTA, CHAPECO, BRASIL;-27.0969823;-52.6165288
15767;SUPER PAO LJ37;84025000;AVENIDA GENERAL CARLOS CAVALCANTI, 22, PONTA GROSSA, BRASIL;-25.0926256;-50.1200809
16027;OBA UVARANAS LJ13;84025000;AV GENERAL CARLOS CAVALCANTI, 4149, PONTA GROSSA, BRASIL;-25.0926256;-50.1200809
16036;SUPERPAO LJ14 HIPER;85010020;AV PREFEITO MOACIR JULIO SILVESTRE, 901, GUARAPUAVA, BRASIL;-25.3873356;-51.4608155
16062;SUPERPAO FBELTRAO 12;85601000;AV JULIO ASSIS CAVALHEIRO, 140, FRANCISCO BELTRAO, BRASIL;-26.0808161;-53.0501502
16118;SUPERPAO LJ 23*;84600472;RUA JOAQUIM TAVORA, 373, UNIAO DA VITORIA, BRASIL;-26.2324933;-51.0935042
16582;GERMANIA SAO RAF 041;89295000;RUA FRANCISCO GERY KAMIENKI, 473, RIO NEGRINHO, BRASIL;-26.25443;-49.5186
14733;ASSAI ATACADI CIC;81270200;AV JUSCELINO KUBITSCHEK DE OLIVEIRA, 251, CURITIBA, BRASIL;-25.4897231;-49.3448195
16635;ASSAI ALTO DA XV;82530195;AV MARECHAL HUMBERTO DE ALENCAR, 230, CURITIBA, BRASIL;-25.4326741;-49.238367
11231;CASA FIESTA JD AMERI;81530000;AVENIDA FRANCISCO H DOS SANTOS, 1450, CURITIBA, BRASIL;-25.456896;-49.2318877
17277;SUPER LUCAS-;89636000;AVENIDA 26 DE ABRIL, 0, ABDON BATISTA, BRASIL;-27.60995;-51.0258
17278;SUPER LUCAS*;88598000;R DOM DANIEL HOSTIN, 804, CELSO RAMOS, BRASIL;-27.63332;-51.33738
17279;SUPER LUCAS*;89613000;R CEL. HONORATO VIEIRA, 1640, ERVAL VELHO, BRASIL;-27.27619;-51.4434
17281;SUPER LUCAS*;89620000;R CORONEL PEDRO CARLOS, 447, CAMPOS NOVOS, BRASIL;-27.40064;-51.22613
319;SUP MOCAM LOJA II;89130000;RUA MARECHAL DEODORO DA FONSECA , 1090, INDAIAL, BRASIL;-26.89643;-49.23293
321;SUP MOCAM LOJA III;89107000;RUA JOAO VIEIRA DE CAMPOS , 90, POMERODE, BRASIL;-26.74081;-49.17591
12964;SUPER MYATA 9*;88210000;AV. HIRONIDO CONCEICAO DOS SANTOS, PORTO BELO, BRASIL;-27.15711;-48.57559
15950;SUPERMERCADO RANCHO*;89254235;PREF. JOSE BAUER, 1402, JARAGUA DO SUL, BRASIL;-26.4519895;-49.1191197
14246;ATACAREJO BRUDA;89466216;AV RUBENS RIBEIRO DA SILVA, 151, CANOINHAS, BRASIL;-26.18775;-50.37806
14028;RIO VERDE TARUMA;82530230;AV VICTOR FERREIRA DO AMARAL, 816, CURITIBA, BRASIL;-25.4292786;-49.2219818
16183;HARGER 4 BARRAS;83420000;RUA ARISTEU LUCIANO ADAMOSKI, 50, QUATRO BARRAS, BRASIL;-25.3677;-49.07435
17669;SUPERMERCADO RIO VER;83450000;RUA ALFREDO STRAUB, 146, BOCAIUVA DO SUL, BRASIL;-25.20706;-49.11332
2053;SUPER MAR CAIOBA;83260000;AV JUSCELINO KUBITSCHEK DE OLIVEI, 1468, MATINHOS, BRASIL;-25.8186;-48.54144
243;MERCADO BAMBAM*;88056750;RUA J JAIME A RAMOS, SN, FLORIANOPOLIS, BRASIL;-27.396534;-48.4269144
475;MERCADO VO ROQUE;88140000;PROCOPIO LOHN, 1275, SANTO AMARO DA IMPERATRIZ, BRASIL;-27.6887;-48.77744
484;MAGIA LAGOA;88062120;RUA MANOEL SEVERINO DE OLIVEIRA, 639, FLORIANOPOLIS, BRASIL;-27.6028294;-48.4687203
2265;STALL SITIO CERCADO;81900000;RUA IZAAC FERREIRA DA CRUZ, 2941, CURITIBA, BRASIL;-25.5356223;-49.2711948
3285;SUP MERETH;89228714;RUA JOSE A. DO LIVRAMENTO, 19, JOINVILLE, BRASIL;-26.2883925;-48.773278
3712;SUP SOL E MAR;89249000;RUA ANDRE RODRIGUES DE FREITAS, 685, ITAPOA, BRASIL;-26.10919;-48.6059
4232;MERC CARVOEIRA*;88040600;RUA CAPITAO ROMUALDO DE BARROS, 905, FLORIANOPOLIS, BRASIL;-27.6053539;-48.5300583
4391;MERC JOINVILLENSE;89211307;RUA SANTA CATARINA, 1345 SALA 02, JOINVILLE, BRASIL;-26.3493268;-48.8469366
5945;MINI MERC ACORES*;88067200;ESTRADA JOAO BELARMINO DA SILVA, 2074, FLORIANOPOLIS, BRASIL;-27.7796237;-48.5209451
6032;SUPER NEGRELLI;83870000;AV MIGUEL KOMARCHEWSKI, 1587, CAMPO DO TENENTE, BRASIL;-25.98084;-49.68309
6213;SUSIN BAR MERCEARIA;84600000;RUA COSTA CARVALHO, 188, UNIAO DA VITORIA, BRASIL;-26.23049;-51.08661
6551;MERCADO LACO;89240000;RUA MARIAMACHADO, SN, SAO FRANCISCO DO SUL, BRASIL;-26.2422;-48.63792
6933;SUPER NARDELLI;89160117;RUA DOM BOSCO, 1235, RIO DO SUL, BRASIL;-27.2115787;-49.637081
7040;MERCADO DO LULA;88056750;ESTR JORNALISTA JAIME ARRUDA RAMOS, 1216, FLORIANOPOLIS, BRASIL;-27.396534;-48.4269144
7239;MERC ACOU AVENIDA;84620000;RUA LAURO MULLER SOARES, 65, CRUZ MACHADO, BRASIL;-26.01536;-51.34563
7261;APPELDORN ATACADO;84025000;AV GENERAL CARLOS CAVALCANTI, 4028, PONTA GROSSA, BRASIL;-25.0926256;-50.1200809
10141;MERCADO ENGENHO NOVO;88062100;RUA: JOAO PACHECO DA COSTA, 384, FLORIANOPOLIS, BRASIL;-27.5994403;-48.4685917
10431;MERC SUPER NORTE II;88052600;EST CRISTOVAO MACHADO DE CAMPOS, 353, FLORIANOPOLIS, BRASIL;-27.4696602;-48.4440753
10631;SUPER DRUZIKI MATRIZ;83601010;RUA XAVIER DA SILVA, 1345, CAMPO LARGO, BRASIL;-25.4574871;-49.5286403
10761;SUPERMER CORREIA*;88332490;R PEDRO PINTO FELIPE,79, BALNEARIO CAMBORIU, BRASIL;-27.0187529;-48.6041763
11581;A GRANDE GULA;82940090;RUA LUIZ FRANCA 1546 LOJA 01, CURITIBA, BRASIL;-25.4536773;-49.2181808
11720;ASSIS SUP CAMP TENEN;83870000;RUA MIGUEL KOMARCHEWSKI, 1216, CAMPO DO TENENTE, BRASIL;-25.98084;-49.68309
11854;MERCADO FERTINE II;83535976;RUA DUQUE DE CAXIAS, 70, CAMPO MAGRO, BRASIL;-25.2838911;-49.4401094
12315;SM PRECO BOM 2;83602230;RUA ANTONIO GABARDO JUNIOR, 535, CAMPO LARGO, BRASIL;-25.4761151;-49.5547045
15415;SUPERMERCADO SEZINHO;89164420;RUA CLEMENTE DEMARCH, 3928, RIO DO SUL, BRASIL;-27.2534974;-49.6925101
15641;MERCADO DICO;88108100;R. JOAO GRUMICHE, 1323, 1323, SAO JOSE, BRASIL;-27.5925769;-48.6216953
16224;MERC COMPRE FACIL*;88051001;RODOVIA RAFAEL DA ROCHA PIRES, 2190, FLORIANOPOLIS, BRASIL;-27.4822036;-48.5372081
16226;SUPER MARISTELA;88332005;HERMOGENES DE ASSIS FEIJO, 120, BALNEARIO CAMBORIU, BRASIL;-27.0134251;-48.6019657
16884;MERCADO ESPACO MAIS*;88040600;RUA CAPITAO ROMUALDO DE BARROS, 916, FLORIANOPOLIS, BRASIL;-27.6053539;-48.5300583
17035;MER E PADARIA INOVE*;88061701;ROD JORNALISTA MANOEL DE MENEZES, 3317, FLORIANOPOLIS, BRASIL;-27.5885167;-48.4360599
17466;MERCADO DE TUDO-;88210000;AV ALMIRANTE FONSECA NEVES, 127, PORTO BELO, BRASIL;-27.15711;-48.57559
17553;ADORATTO SUPERMERCAD;82810350;AVENIDA VICTOR FERREIRA DO AMARAL, 2633, CURITIBA, BRASIL;-25.4292786;-49.2219818
17575;MERCADO BISS;89249000;AV DRA ZILDA ARNS NEUMAN, 537, ITAPOA, BRASIL;-26.10919;-48.6059
17619;COMERCIO DE DOCES AN;83215270;AVENIDA GOVERNADOR BENTO MUNHOZ DA ROCHA, PARANAGUA, BRASIL;-25.5641935;-48.5701494
17813;MERCADO ECONOMIA;87930000;AV PORTO ALEGRE, 289, QUERENCIA DO NORTE, BRASIL;-23.08478;-53.48356
17885;MERCADO VERDE MAR;88375000;RUA BERNARDINO F DE OLIVEIRA, 242, NAVEGANTES, BRASIL;45.60634;9.30797
17951;JEAN CARLOS BARBO;83060680;RUA AURORA, 415, SAO JOSE DOS PINHAIS, BRASIL;-25.4873733;-49.1374448
17993;QUITANDA DA PRACA;88054605;PRACA FRANCISCO GERMANO DA COSTA, 4921, FLORIANOPOLIS, BRASIL;-27.442453;-48.4658502
18076;COMPRE FACIL;88056750;ESTRADA JORNALISTA JAIME DE ARRUDA RAMOS, FLORIANOPOLIS, BRASIL;-27.396534;-48.4269144
18232;ARMAZEM DA BARRA;88061500;ROD JOAO GUALBERTO SOARES K30479, 17317, FLORIANOPOLIS, BRASIL;-27.5499544;-48.4363847
18311;MERCADO LIMA;88062100;RUA JOAO PACHECO DA COSTA, 384, FLORIANOPOLIS, BRASIL;-27.5994403;-48.4685917
18362;PACHOLOK ALIMENTOS L;81900220;RUA PEDRO CLAUDINO DA ROCHA, 213, CURITIBA, BRASIL;-25.5384946;-49.2794573
3613;SUP BOM DIA AVENIDA;89460000;AV RUBENS RIBEIRO DA SILVA, 465, CANOINHAS, BRASIL;-26.17727;-50.39129
5079;SUP VITOR*;84062250;RUA DR LAUDELINO GONCALVES, 332, PONTA GROSSA, BRASIL;-25.0832735;-50.2035165
6272;SUPER BOZA STA TEREZ;83833251;RUA RIO PIQUIRI, 713, FAZENDA RIO GRANDE, BRASIL;45.60634;9.30797
6273;SUPER BOZA IGUACU;83833505;AV RIO AMAZONAS, 1052, FAZENDA RIO GRANDE, BRASIL;-25.64223;-49.3225515
11468;MERCADO GARCIA*;89130000;"RUA: DOUTOR BLUMENAU; 4266; SALA 01, INDAIAL, BRASIL";-26.89643;-49.23293
15504;SUPER GIRASSOL;88210000;AV SENADOR ATILIO FONTANA, 795, PORTO BELO, BRASIL;-27.15711;-48.57559
17201;JUMBO ATACADISTA;81940005;ROD CURITIBA QUATRO BARRAS BR277, 600, CURITIBA, BRASIL;-25.5550964;-49.2716766
17406;SUPREMOCAFE;85610000;RUA NILO PECANHA 386, 386, FRANCISCO BELTRAO, BRASIL;-26.15806;-52.97335
1662;SUP GAIVOTAS*;88190000;RUA DAS PALMEIRAS, 27, GOVERNADOR CELSO RAMOS, BRASIL;-27.32363;-48.54064
1768;TIELI B. NORTE LJ01;88750000;RUA JORGE LACERDA, 1284, BRACO DO NORTE, BRASIL;-28.28342;-49.15864
11995;MESCHKE MATRIZ;88330077;RUA AV DO ESTADO. 3103, BALNEARIO CAMBORIU, BRASIL;-26.9399868;-48.6942209
12038;MESCHKE PIONEIROS;88331150;RUA AV DO ESTADO,1751, BALNEARIO CAMBORIU, BRASIL;-26.9399868;-48.6942209
10679;PRADO SUPERMERCADO;88190000;RODOVIA SC 410, SN, GOVERNADOR CELSO RAMOS, BRASIL;-27.32363;-48.54064
18060;PRADO SUPERMERCADO;88210000;AV GOVERNADOR CELSO RAMOS, 2262, PORTO BELO, BRASIL;-27.15711;-48.57559
17266;CRAVIL JOSE BOITEUX;89145000;AVENIDA 26 DE ABRIL, 219, JOSE BOITEUX, BRASIL;-26.96083;-49.62672
17267;CRAVIL P. GETULIO;89150000;ESTRADA GERAL - KM 28, 0, PRESIDENTE GETULIO, BRASIL;-27.04537;-49.62231
17268;CRAVIL DONA EMMA;89155000;RUA PREFEITO SIDO SCHOEDER, 130, DONA EMMA, BRASIL;-26.98604;-49.72478
16758;SUPER SANTOS SAO JOA;88107100;RUA ANTONIO JOVITA DUARTE, 5533, SAO JOSE, BRASIL;-27.5769054;-48.6787481
11609;ITALO ATUBA;82620300;AV MARECHAL MASCARENHA DE MORAES, 1463, CURITIBA, BRASIL;-25.3841001;-49.2165209
16835;ITALO SUPERMERCADOS;85857188;AV REPUBLICA ARGENTINA, 3496, FOZ DO IGUACU, BRASIL;-25.535636;-54.553105
14939;SUPERMER BAHNIUK*;84600093;RUA TEIXEIRA SOARES, 390, UNIAO DA VITORIA, BRASIL;-26.2249695;-51.0842142
16980;SUPERMERCADO BAHNIUK;84635000;RUA 14 DE DEZEMBRO, 701, PAULO FRONTIN, BRASIL;-26.04033;-50.82886
17438;SUPERMERCADO MERCOC*;88110470;RUA JOSE ANTONIO THOMAZ, 207, SAO JOSE, BRASIL;-27.5762367;-48.6222209
13298;SUP MACRIS SJ BA;88240000;RUA MARCOLINO DUARTE, 241, SAO JOAO BATISTA, BRASIL;-27.27675;-48.84983
17501;SUPERMERCADOS MACRIS;88240000;RUA LEOBERTO LEAL, 155, SAO JOAO BATISTA, BRASIL;-27.27675;-48.84983
5389;PANIF PADOCAS;83870000;AV MIGUEL KOMARCHESKI, 574, CAMPO DO TENENTE, BRASIL;-25.98084;-49.68309
7799;PANIF SUPER PAO;84620000;AVENIDA INTERVENTOR MANOEL RIBAS, 159, CRUZ MACHADO, BRASIL;-26.01536;-51.34563
11308;PADARIA SANTA HELENA;88111310;RUA DORALICE RAMOS PINHO, 395, SAO JOSE, BRASIL;-27.5668691;-48.6212131
11677;PANIF SANTA ISABEL;88034102;R PASTOR WILLIAM RICHARD SCHISLER 2090, FLORIANOPOLIS, BRASIL;-27.5841868;-48.4987299
15999;PADARIA PAO E DOCES;89490000;AV.VER JOSE NUNES CAVALHEIRO, 822, TRES BARRAS, BRASIL;-26.11481;-50.3084
16011;PANIF CARAMELLI;83504000;R PROFESSOR ALFREDO VALENTE, 171, ALMIRANTE TAMANDARE, BRASIL;-25.3315506;-49.2651216
16869;CAFE COIMBRA;84600140;RUA PROFESSOR CLETO, 150, UNIAO DA VITORIA, BRASIL;-26.2334967;-51.090239
17485;CAFE SUNRISE-;88062020;RUA HENRIQUE VERA DO NASCIMENTO, 240, FLORIANOPOLIS, BRASIL;-27.6051582;-48.4662172
17736;MINI KALZONE -;88139470;RUA HERCILIO NICOLAU DOS SANTOS, 10, PALHOCA, BRASIL;-27.9019963;-48.5940628
18085;MERCEARIA E LANCHONE;89240000;AVENIDA ATLANTICA, 0, BALNEARIO BARRA DO SUL, BRASIL;-26.2422;-48.63792
18112;ALPHA CAFETERIA LTDA;89167015;RUA BOTANICO KUHLMANN, 419, RIO DO SUL, BRASIL;-27.2234999;-49.6402744
18167;CAFE AMELLI;88102050;RUA CHARLES FERRARI SALA01, 250, SAO JOSE, BRASIL;-27.5968857;-48.6162608
18259;REI DOS SABORES;89218105;AVENIDA SANTOS DUMONT ANEXO NEOGRID, 935, JOINVILLE, BRASIL;-26.242147;-48.83395
241;RESTAURANTE MAX MOPP;89239400;RODOVIA SC 301, 5743 KM 80, JOINVILLE, BRASIL;-26.1984771;-48.920197
708;LANCH RIO SAO PAULO;89201250;RUA DONA FRANCISCA,411 SALA 02, JOINVILLE, BRASIL;-26.2936116;-48.8409013
862;MUNDO SELV.COFFEE;88330000;AV. ATLANTICA,  2186 -LOJA 01, BALNEARIO CAMBORIU, BRASIL;45.60634;9.30797
1111;LANCH HEISER;89250000;RUA DNA MATILDE, SN, JARAGUA DO SUL, BRASIL;45.60634;9.30797
1394;BEBIBA CAFE LTDA;88330666;AVENIDA CENTRAL, 184 SALA 1, BALNEARIO CAMBORIU, BRASIL;-26.9882941;-48.6359803
3560;CHURR O CUPIM;83215680;ROD BR 277 KM 06, SN, PARANAGUA, BRASIL;-25.5647588;-48.5607584
6388;RESTAURANTE DO INDIO;88062000;CAMINHO DA COSTA DA LAGOA, SN, FLORIANOPOLIS, BRASIL;-27.6037893;-48.4701952
7105;RESTAURANTE CLAUDIR;88190000;AV BELA VISTA, SN, GOVERNADOR CELSO RAMOS, BRASIL;-27.32363;-48.54064
10937;DON VIGOLO;89245000;ROB BR 280,KM 21, 10765, ARAQUARI, BRASIL;-26.37156;-48.72328
11750;CASA BAHIA MERCEARIA;89012001;RUA SAO PAULO, 443 SL 01, BLUMENAU, BRASIL;-26.901854;-49.0778045
12083;REST SABORES DA ROCA;81670080;RUA PROFESSOR JOAO SOARES BARCELOS, 1669, CURITIBA, BRASIL;-25.4961823;-49.2470198
12317;DONA TORTA;89223005;AVENIDA ROLF WIEST, 333 SALA 7, JOINVILLE, BRASIL;-26.255115;-48.8520169
12412;REST DO BOSQUE*;88190000;RUA DOS RECANTOS, 88, GOVERNADOR CELSO RAMOS, BRASIL;-27.32363;-48.54064
13335;PIZZAR LENHA E OLIV-;88037395;RUA VERA LINHARES DE ANDRADE, 1870, FLORIANOPOLIS, BRASIL;-27.597482;-48.4987248
14066;CONFEITARIA DA NENA;83870000;AV MIGUEL KOMARCHEWSKI, 740, CAMPO DO TENENTE, BRASIL;-25.98084;-49.68309
16168;REST E POUSADA  BLU*;88210000;AV SENADOR ATILIO FONTANA, 0, PORTO BELO, BRASIL;-27.15711;-48.57559
16364;RECANTO DO SALTINHO;83190000;ESTRADA DO SALTINHO, SN, TIJUCAS DO SUL, BRASIL;-25.9231;-49.17834
16518;REST PORTO ACORES;88067200;ESTRADA JOAO BELARMINO DA SILVA, 1695, FLORIANOPOLIS, BRASIL;-27.7796237;-48.5209451
16638;SR. CHURRASCO;83255000;RUA SAO LUIZ, 492, PONTAL DO PARANA, BRASIL;-25.69195;-48.47307
17115;RIO DA PRATA ALIMENT;89239400;ROD SC 418 KM 06, 5317, JOINVILLE, BRASIL;-26.1984771;-48.920197
17284;BOTEQUIM DAS FLORES-;88051000;ROD GILSON DA COSTA XAVIER,1520, FLORIANOPOLIS, BRASIL;-27.4987219;-48.5241015
17327;THE CLUB HOUSE PIZZA;82130430;R ANTONIO VIEIRA DOS SANTOS, 50, CURITIBA, BRASIL;-25.3786783;-49.2720728
17720;RESTAURANTE COLISEU;84070130;RUA VISCONDE DE SINIMBU, 620, PONTA GROSSA, BRASIL;-25.0789187;-50.1769205
17741;BAR DO BANANA PRAIA;89240000;RUA TEREZINA, 120, SAO FRANCISCO DO SUL, BRASIL;-26.2422;-48.63792
17792;KLOPPEL PETISCARIA-;88828000;AV WALDEMAR CARLOS PETRINI, 5, BALNEARIO RINCAO, BRASIL;-28.82068;-49.22034
17808;RESTAURANTE ELEGANCE;80035000;AVENIDA MUNHOZ DA ROCHA NÂº 1146, CURITIBA, BRASIL;-25.4087086;-49.2513524
17882;RESTAURANTE FOGAO A;83870000;R ANDRE VALENGA, 160, CAMPO DO TENENTE, BRASIL;-25.98084;-49.68309
17948;TUFFYS BOULEVARD;89802200;RUA BENJAMIN CONSTANT LETRA D, 51, CHAPECO, BRASIL;-27.0981384;-52.611075
18098;ADEGA MARIANO;83606176;RUA JORGE DEMETRIO PAULISTA, 172, CAMPO LARGO, BRASIL;-25.4407558;-49.5365472
18109;RESTAURANTE MORRO DA;88066000;RODOV. FRANCISCO THOMAZ DOS SANTOS, 2089, FLORIANOPOLIS, BRASIL;-27.7167145;-48.5067993
18282;BAR DEL MAR;88139470;RUA HERCILIO NICOLAU DOS SANTOS, 10, PALHOCA, BRASIL;-27.9019963;-48.5940628
18400;BOTECO DO LOKAO;83070180;SAO JORGE, 285, SAO JOSE DOS PINHAIS, BRASIL;-25.5167779;-49.1273548
878;POSTO ALIANCA;89222060;RUA PIRATUBA, 17 ESQ. COM IRIRIU, JOINVILLE, BRASIL;-26.2672365;-48.8375972
11700;REST POSTO ALFANDEGA;88050000;ROD. GILSON DA COSTA XAVIER, 2919, FLORIANOPOLIS, BRASIL;-27.5146735;-48.5132178
12249;POSTO PLANALTO;89294000;ROD SC, 301 KM 45, CAMPO ALEGRE, BRASIL;-26.19268;-49.26587
12731;POSTO MONTE CARLO 1;83190000;BR 376, KM 654, TIJUCAS DO SUL, BRASIL;-25.9231;-49.17834
15513;POSTO GRANDE RIO;84600000;AV. MANOEL RIBAS, 1257, UNIAO DA VITORIA, BRASIL;-26.23049;-51.08661
15910;RIBEIRO BEBIDAS;83604220;AV FRITZ ERWIN SCHMID, 1771, CAMPO LARGO, BRASIL;-25.4674277;-49.5702965
16195;DEJAVU BEER;88060300;RUA CANDIDO PEREIRA DOS ANJOS, 2147, FLORIANOPOLIS, BRASIL;-27.4850065;-48.4112677
17580;POINT CONVENIENCIA;84600130;RUA CARLOS CAVALCANTE, 420, UNIAO DA VITORIA, BRASIL;-26.2337305;-51.08856
17787;DISTRIBUIDORA BROTHE;81870370;RUA ENGENHEIRO JOAO BLEY FILHO, 669, CURITIBA, BRASIL;-25.5214739;-49.287671
17854;ROSSA MERCADO;82410210;RUA FERNANDO CORREA DE AZEVEDO, 670, CURITIBA, BRASIL;-25.3837029;-49.3323636
17863;ARISUL COMERCIO DE B;84045170;RUA MAQUINISTA ELEODORO JACINTO, 65, PONTA GROSSA, BRASIL;-25.119511;-50.15588
17959;D.R.E BEBIDAS;83212550;RUA ALZIR DOS SANTOS ANTUNES, 935, PARANAGUA, BRASIL;-25.5139423;-48.5341445
5034;FORT COMPER ITJ LJ11;88301200;AVENIDA SETE DE SETEMBRO , 300, ITAJAI, BRASIL;-26.30444;-48.84556
5875;FORT JARAGUA LJ 85;89256000;RUA MAX WILHELM, 594, JARAGUA DO SUL, BRASIL;-26.4821289;-49.746776
10980;FORT BC LJ 115;88330116;AV MARGINAL LESTE, S/N, BALNEARIO CAMBORIU, BRASIL;-26.30444;-48.84556
11078;FORT PALHOCA LJ 130;88132010;ROD BR 101, SN, PALHOCA, BRASIL;-26.30444;-48.84556
11867;FORT BRUSQUE LJ 135;88353130;AV BEPE, 3700, BRUSQUE, BRASIL;-26.30444;-48.84556
12370;FORT KOBRASOL LJ160;88102340;RUA CASSOL, 1199, SAO JOSE, BRASIL;-26.30444;-48.84556
13073;FORT ICARA LJ 185;88820000;ROD SC 443, SN, ICARA, BRASIL;-26.30444;-48.84556
13074;FORT PORTOBELO LJ190;88210000;AV GOVERNADOR CELSO RAMOS, SN, PORTO BELO, BRASIL;-27.8998;-52.63669
13309;FORT ATAC CHAPECO;89803402;AV SAO PEDRO E, 1968, CHAPECO, BRASIL;-26.30444;-48.84556
13311;FORT CAMPECHE L145;88065000;ROD FRANCISCO MAGNO VIEIRA, SN, FLORIANOPOLIS, BRASIL;-26.30444;-48.84556
13663;FORT ITAJAI CORDEIR;88310004;RUA DOUTOR REINALDO SCHMITHAUSEN, 1249, ITAJAI, BRASIL;-26.30444;-48.84556
14018;FORT TUBARAO;88704296;R DEPUTADO OLICES PEDRA DE CALDAS, SN, TUBARAO, BRASIL;-26.30444;-48.84556
14043;FORT INGLESES L 210;88058000;ROD. ARMANDO CALIL BULOS, 170, FLORIANOPOLIS, BRASIL;-26.30444;-48.84556
14221;FORT BARRA VELHA;88390000;RODOVIA BR 101 KM 86, BARRA VELHA, BRASIL;-26.5979011;-48.7238287
14230;FORT AVENTUREIRO 165;89226001;RUA TUIUTI, 4157, JOINVILLE, BRASIL;-26.2373525;-48.8189996
14333;FORT CRICIUMA;88805000;AVENIDA: CENTENARIO, 1151, CRICIUMA, BRASIL;-26.30444;-48.84556
14613;FORT BIGUACU LJ 290;88160164;7 SETEMBRO , S/N, BIGUACU, BRASIL;-26.30444;-48.84556
14814;FORT FLORIPA LJ 810;88050001;RUA JOSE CARLOS DAUX, 9580, FLORIANOPOLIS, BRASIL;-26.30444;-48.84556
14815;FORT PALHOCA LJ 462;88130280;RUA AMARO FERREIRA DE MACEDO, 160, PALHOCA, BRASIL;-26.30444;-48.84556
14817;FORT BARR SJ LJ 365;88111901;ROD BR 101 , KM 202, 385, SAO JOSE, BRASIL;-26.30444;-48.84556
14818;FORT LAGES;88505001;AVENIDA: PAPA JOCO XXIII, 120, LAGES, BRASIL;-26.30444;-48.84556
14819;FORT BARREIRO LJ306;88117400;RUA SEBASTIAO FURTADO PEREIRA,, 9, SAO JOSE, BRASIL;-26.30444;-48.84556
15095;FORT S BENTO 385;89280490;RUA: JORGE ZIPPERER, 0, SAO BENTO DO SUL, BRASIL;-26.2518523;-49.3760295
15109;FORT INDAIAL 270;89084508;RUA: AUGUSTO HASSE, 1699, INDAIAL, BRASIL;-26.30444;-48.84556
15110;FORT BC 295;88330116;AVENIDA MARGINAL LESTE AREA A, 0, BALNEARIO CAMBORIU, BRASIL;-26.30444;-48.84556
15116;FORT BUCAREIN 305;89202250;RUA CORONEL FRANCISCO GOMES, 788, JOINVILLE, BRASIL;-26.3178695;-48.8419117
15119;FORT C.SILVA 405;89220055;AVENIDA ALMIRANTE JACEGUAY, 2951, JOINVILLE, BRASIL;-26.2748611;-48.877513
15482;FORT ITOUP LJ195;89066003;DOUTOR PEDRO ZIMMERMANN, 1511, BLUMENAU, BRASIL;-26.30444;-48.84556
15618;FORT ITJ CENTR L325;88304300;RUA: INDAIAL, 1730, ITAJAI, BRASIL;-26.2762825;-48.841754
15619;FORT ITJ CENTR L310;88301330;RUA: CORONEL MARCOS KONDER, 228, ITAJAI, BRASIL;-26.30444;-48.84556
17178;FORT ATAC CANOAS;92020475;AV FARROUPILHA, 4803, CANOAS, BRASIL;-26.30444;-48.84556
17325;FORT ATACADISTA  VIA;94435000;ROD TAPIR ROCHA, 7131, VIAMAO, BRASIL;-26.30444;-48.84556
17802;FORT ATAC CAXIAS;95084460;RUA 13 DE MAIO 1445, CAXIAS DO SUL, BRASIL;-26.30444;-48.84556
18043;FORT STA CATARINA;89211300;RUA SANTA CATARINA, 3086, JOINVILLE, BRASIL;-26.3503893;-48.8489639
18044;FORT VILA NOVA;89237000;RUA QUINZE DE NOVEMBRO, 5008, JOINVILLE, BRASIL;-26.2892036;-48.8944532
18045;FORT RIO DO SUL;89163244;RODOVIA BR 470 - AREA 01, 6380, RIO DO SUL, BRASIL;-27.21417;-49.64306
18174;FORT ATAC RS LJ 885;96810408;AV PAUL HARRIS, 291, SANTA CRUZ DO SUL, BRASIL;-26.30444;-48.84556
18188;FORT LAGES 960;88508620;RUA GETULIO VARGAS, 232, LAGES, BRASIL;-26.1776065;-50.3863798
18189;FORT ITAJAI 825;88308000;AVENIDA GOVERNADOR ADOLFO KONDER, 700, ITAJAI, BRASIL;-26.30444;-48.84556
18297;FORT NOVO HAMBURGO;93315138;RUA VINTE E QUATRO DE MAIO 368, NOVO HAMBURGO, BRASIL;-29.67833;-51.13056
18304;FORT PENHA;88385000;RUA ABILIO SOUZA, 750, PENHA, BRASIL;-26.30444;-48.84556
12210;ATACADAO SA;88308001;RUA AV GOVERNADOR ADOLFO KONDER, 555, ITAJAI, BRASIL;-26.30444;-48.84556
13803;ATACADAO BLUMENAU;89065800;RUA RODOVIA BR 470, 3000, BLUMENAU, BRASIL;-26.30444;-48.84556
15171;ATACADAO ICARA;88820000;ROD SC 445 QUADRA 44E L45, 152, ICARA, BRASIL;-26.30444;-48.84556
15581;MAXXI FLP CAPOEIRAS;88080050;RODOVIA: BR 282, 0, FLORIANOPOLIS, BRASIL;-26.30444;-48.84556
15583;MAXXI LAGES;88509000;AVENIDA: DOM PEDRO II, 2015, LAGES, BRASIL;-26.2485152;-49.3885915
15841;ATACADAO SAO JOSE;88102600;RUA JOCO GRUMICHE, 755, SAO JOSE, BRASIL;-26.30444;-48.84556
16163;ATACADAO BIGUACU;88160486;RUA ALEXANDRE SERGIO GODINHO, 129, BIGUACU, BRASIL;-26.30444;-48.84556
16228;ATACADAO CHAPECO;89809000;AVENIDA SENADOR ATTILIO FRANCISCO XAVIER, CHAPECO, BRASIL;-26.30444;-48.84556
16826;MAXXI CHAPECO;89805203;AVENIDA FERNANDO MACHADO, 3750, CHAPECO, BRASIL;-26.30444;-48.84556
12944;BRASIL ATACADISTA BI;88161064;RUA JOAO COAN, 390, BIGUACU, BRASIL;-26.30444;-48.84556
13366;BRASIL ATAC INGLESE;88058001;ROD ARMANDO CALIL BULOS, 5890, FLORIANOPOLIS, BRASIL;-26.30444;-48.84556
14657;BRASIL ATAC RIO TAVA;88048000;RODOVIA: FRANCISCO MAGNO VIEIRA, 373, FLORIANOPOLIS, BRASIL;-26.30444;-48.84556
14869;BRASIL ATACAD SJ;88106115;RODOVIA SC -281, 2665, SAO JOSE, BRASIL;-26.30444;-48.84556
15004;BRASIL ATA. PALHOCA;88135016;RODOVIA: BR-101 KM 215,7, 0, PALHOCA, BRASIL;-26.30444;-48.84556
15360;BRASIL AT PRAIA BRV;88306601;AV OSVALDO REIS, 2751, ITAJAI, BRASIL;-26.30444;-48.84556
16018;BRASIL ATAC LAGES;88521098;AVENIDA: DAS TORRES, 160, LAGES, BRASIL;-26.1434449;-49.8274723
16644;BRASIL ATAC LOJA 35;89205098;RUA ALBANO SCHMIDT, 1200, JOINVILLE, BRASIL;-26.3042707;-48.8235972
17153;BRASIL ATAC BLUMENAU;89066000;R DR PEDRO ZIMMERMANN, 2430, BLUMENAU, BRASIL;-26.30444;-48.84556
7488;MUFFATO MAX PARANAGU;83203340;AV CORONEL JOSE LOBO, 939, PARANAGUA, BRASIL;-26.30444;-48.84556
7613;MUFFATO MAX PINHEIRI;81110522;RUA LOTHARIO BOUTIN, 554 TERREO, CURITIBA, BRASIL;-26.30444;-48.84556
12501;MUFFATO MAX B. ALTO;82840123;AV CAVIUNA, 472, CURITIBA, BRASIL;-26.30444;-48.84556
13042;MUFFATO MAX SAO JOSE;83065260;AV RUI BARBOSA, 6131, SAO JOSE DOS PINHAIS, BRASIL;-26.30444;-48.84556
16876;MAX MUFFATO - HAUER;81630000;AV MARECHAL FLORIANO PEIXOTO, 5350, CURITIBA, BRASIL;-26.30444;-48.84556
17224;MUFFATO MAX TOLEDO;85904460;AV MINISTRO CIRNE LIMA, 4022, TOLEDO, BRASIL;-26.30444;-48.84556
13935;COMBO ARARANGUA LJ01;88901026;AVENIDA PRESIDENTE JOAO GOULART , 50, ARARANGUA, BRASIL;-26.30444;-48.84556
14664;COMBO PALHOCA LJ02;88133500;AV GENTIL REINALDO CORDIOLI 313, PALHOCA, BRASIL;-26.30444;-48.84556
15173;COMBO ICARA LJ03;88820000;ROD SC 445 KM 63,75, 4609, ICARA, BRASIL;-26.30444;-48.84556
16762;COMBO TUBARAO LJ 05;88704730;RUA TEREZA MARTINS DE BRITO, 425, TUBARAO, BRASIL;-26.30444;-48.84556
17431;COMBO SOMBRIO LJ06;88960000;RUA MARGINAL DA BR 101 FRANCISCO POSSAMA, SOMBRIO, BRASIL;-26.30444;-48.84556
18130;COMBO CRICIUMA LJ07;88801020;RUA ANITA GARIBALDI, 375, CRICIUMA, BRASIL;-26.3186791;-48.8501152
10303;GUIMAR SORVETES;88056698;SERVIDAO MANOEL NICOLAU PEREIRA, 514, FLORIANOPOLIS, BRASIL;-26.30444;-48.84556
13095;DELIGEL JLLE;89237680;ROD RODOLFO JAHN, 326, JOINVILLE, BRASIL;-26.30444;-48.84556
13098;DELIGEL BIGUACU;88164275;RUA EDGAR HOFFMANN, 349, BIGUACU, BRASIL;-26.30444;-48.84556
16076;SOLUTION CAFE;85805150;R SILVINO BLENDER, 527, CASCAVEL, BRASIL;-26.30444;-48.84556
50002;PAV IND FLORIPA;88160450;RUA CECILIA MARIA JOSE AZEVEDO, S/N, BIGUACU, BRASIL;-26.30444;-48.84556
50003;PAV IND PARANA;83025580;RUA PEDRO TREVISAN, 462, SAO JOSE DOS PINHAIS, BRASIL;-26.30444;-48.84556
50004;PAV IND MAFRA;89300000;RUA BENEMERITO LUCILLE CARVER, 101, MAFRA, BRASIL;-26.30444;-48.84556
894;BARCO PRINCIPE;89228800;RUA PREF. BALTAZAR BUSCHLE 3870, JOINVILLE, BRASIL;-26.30444;-48.84556
3373;CONTEINER POINT;89240000;RUA ALMIRANTE GUILHERN, SN, SAO FRANCISCO DO SUL, BRASIL;-26.30444;-48.84556
6185;RESTAURANTE KIBS;89203005;RUA VISCONDE DE TAUNAY 874, JOINVILLE, BRASIL;-26.3065851;-48.8550476
13250;DON MAXIMILIANO;89204070;RUA RALF COLIN, 109, JOINVILLE, BRASIL;-26.30444;-48.84556
15835;BULL PRIME GARTEN;80035010;RUA BOM JESUS, CURITIBA, BRASIL;-26.30444;-48.84556
15996;GIUSEPPE PIZZARIA;89201700;OTTO BOEHM, 604, JOINVILLE, BRASIL;-26.302471;-48.8566962
17179;CASA SUICA;89219600;DONA FRANCISCA, 8300, JOINVILLE, BRASIL;-26.2353474;-48.8849552
17370;AU AU BARIGUI;81200100;RUA PEDRO VIRIATO PARIGOT DE SOUZA, 600, CURITIBA, BRASIL;-26.30444;-48.84556
17372;AU AU CABRAL;80035000;AV MUNHOZ DA ROCHA, 770, CURITIBA, BRASIL;-26.30444;-48.84556
17377;AU AU MULLER;80530900;AV CANDIDO DE ABREU, 127, CURITIBA, BRASIL;-26.30444;-48.84556
17378;AU AU PALLADIUM;80610905;AV PRESIDENTE KENNEDY, 4121, CURITIBA, BRASIL;-26.30444;-48.84556
17931;FOOD TRUK REI DO PAS;89237680;RODOVIA SC 108, 2886, JOINVILLE, BRASIL;-26.30444;-48.84556
33;ANGELONI ITAJAI 19;88303000;RUA BRUSQUE, 358, ITAJAI, BRASIL;-26.2353952;-48.8330877
72;ANGELONI BALN LOJA 8;88330110;AV QUARTA AVENIDA, 880, BALNEARIO CAMBORIU, BRASIL;-26.30444;-48.84556
74;ANGELONI JARAGUA 10;89251400;RUA BARAO DO RIO BRANCO, 732, JARAGUA DO SUL, BRASIL;-26.4925247;-49.760952
75;ANGELONI BLUMENA 15;89036050;RUA HUMBERTO DE CAMPOS, 77, BLUMENAU, BRASIL;-26.30444;-48.84556
76;ANGELONI BLUMENAU 17;89010200;RUA 7 DE SETEMBRO, 100, BLUMENAU, BRASIL;-26.30444;-48.84556
98;ANGELONI BL.CAMBOR 9;88330000;AV. DOS ESTADOS,  2440, BALNEARIO CAMBORIU, BRASIL;-26.30444;-48.84556
106;ANGELONI CENTRO  11;88015130;RUA ESTEVES JUNIOR, 307, FLORIANOPOLIS, BRASIL;-26.30444;-48.84556
107;ANGELONI CAPOEIRA13;88085001;AV. IVO SILVEIRA, 2445, FLORIANOPOLIS, BRASIL;-26.30444;-48.84556
108;ANGELONI BEIRAMA 14;88025201;AV. IRINEU BORNHAUSEN, 4800, FLORIANOPOLIS, BRASIL;-26.30444;-48.84556
109;ANGELONI STA MON 18*;88035215;AV. NIRBERTO HAASE, 75, FLORIANOPOLIS, BRASIL;-26.30444;-48.84556
112;ANGELONI LAGES 12;88502161;FREI ROGERIO, 587, LAGES, BRASIL;-26.2334611;-51.815528
600;ANGELONI CRICIUMA 02;88801240;RUA FELIPE SCHMIDT,  26, CRICIUMA, BRASIL;-26.30444;-48.84556
601;ANGELONI CRICIUM 07;88801000;AV DO CENTENARIO, 2699, CRICIUMA, BRASIL;-26.30444;-48.84556
602;ANGELONI LAGUNA 04;88790000;RUA TREZE DE MAIO, 12, LAGUNA, BRASIL;-26.2680455;-48.8252156
604;ANGELONI TUBARAO 06;88704306;AV EXP JOSE PEDRO COELHO, 1120, TUBARAO, BRASIL;-26.30444;-48.84556
605;ANGELONI RINCAO LJ 3;88828000;AVENIDA FLORIANOPOLIS, 235, ICARA, BRASIL;-26.30444;-48.84556
1047;ANGELONI JLLE 21;89204002;RUA DR JOAO COLIN, 2500, JOINVILLE, BRASIL;-26.2783228;-48.8490618
1309;ANGELONI JARAGUA 22;89251090;RUA CORONEL BERNARDO GRUBBA, 247, JARAGUA DO SUL, BRASIL;-26.4757873;-49.912905
2146;ANGELONI A. VERDE 20;80620010;AV. REPUBLICA ARGENTINA, 900, CURITIBA, BRASIL;-26.30444;-48.84556
3843;SUPER A ANG JD ATLAN;88095000;AV MARINHEIRO MAX SCHAMANN, 3.450, FLORIANOPOLIS, BRASIL;-26.30444;-48.84556
4143;ANGELONI MINISTRO 23;89202005;RUA MINISTRO CALOGERAS, 1639, JOINVILLE, BRASIL;-26.3110932;-48.8546747
4376;ANGELONI INGLESES 05;88058001;RODOVIA ARMANDO CALIL BULOS, 6375, FLORIANOPOLIS, BRASIL;-26.30444;-48.84556
5423;ANGELONI BIGUACU 25;88160000;RUA CORONEL TEIXEIRA OLIVEIRA, 128, BIGUACU, BRASIL;-26.30444;-48.84556
6635;ANGELONI ARARANGUA30;88900000;AVENIDA GETULIO VARGAS, 1259, ARARANGUA, BRASIL;-26.30444;-48.84556
7329;ANGELONI MARINGA;87020035;AV ADVOG HORACIO RACCANELLO FILHO, 5120, MARINGA, BRASIL;-26.30444;-48.84556
12309;ANGELONI BRUSQUE 33;88350045;RUA MARTIN LUTHER, 135, BRUSQUE, BRASIL;-26.30444;-48.84556
13860;ANGELONI SJP 29;83005000;RUA QUINZE DE NOVEMBRO, 2900, SAO JOSE DOS PINHAIS, BRASIL;-25.5302;-49.20836
14329;ANGELONI SFC LJ 34;89240000;AV DOUTOR NEREU RAMOS , 439, SAO FRANCISCO DO SUL, BRASIL;-26.2586045;-48.644969
14634;ANGELONI CHAMPAGNAT;80710000;R. PADRE AGOSTINHO, 2885, CURITIBA, BRASIL;-26.30444;-48.84556
15522;ANGELONI PORTO BELO;88210000;BR 101 KM154, 0, PORTO BELO, BRASIL;-26.30444;-48.84556
15584;ANGELONI MONTE VERD;88030000;RODOVIA: JOSE CARLOS DAUX (SC 401), 2684, FLORIANOPOLIS, BRASIL;-26.30444;-48.84556
15646;ANGELONI CENTRAL;88815900;AV. CENTENARIO, 7521, CRICIUMA, BRASIL;-26.30444;-48.84556
15899;ANGELONI LONDRINA;86050490;R JOAO HUSS, 74, LONDRINA, BRASIL;-26.30444;-48.84556
18158;ANGELONI JLLE CENTRO;0;RUA NOVE DE MARCO - LOJA 01, 774, JOINVILLE, BRASIL;-26.3015347;-48.8468861
333;CONDOR F RIO GRANDE;83829009;RUA CARLOS EDUARDO NICHELE , 1676, FAZENDA RIO GRANDE, BRASIL;-26.30444;-48.84556
2056;CONDOR ARAUCARIA NOV;83702130;RUA HEITOR ALVES GUIMARAES, 800, ARAUCARIA, BRASIL;-26.30444;-48.84556
2089;CONDOR CHAMPAGNAT;80730030;RUA MARTIN AFONSO, 2800, CURITIBA, BRASIL;-26.30444;-48.84556
2092;CONDOR CENTRO CIVICO;80520000;RUA: NILO PECANHA,1000, CURITIBA, BRASIL;-26.30444;-48.84556
2094;CONDOR LJ03 STA F.;82400000;AV MANOEL RIBAS, 8205, CURITIBA, BRASIL;-26.30444;-48.84556
2095;CONDOR LAPA;83750000;RUA CAETANO MUNHOZ DA ROCHA, 1544, LAPA, BRASIL;-26.291643;-48.6119276
2097;CONDOR LJ07 MARECHAL;81670000;AV. MARECHAL FLORIANO PEIXOTO, 7486, CURITIBA, BRASIL;-26.30444;-48.84556
2098;CONDOR LJ06 PINHEIR.;81150050;AV WINSTON CHURCHILL, 2222, CURITIBA, BRASIL;-26.30444;-48.84556
2099;CONDOR LJ08 COSTEIRA;83203400;RUA: JOAO EUGENIO,605, PARANAGUA, BRASIL;-26.30444;-48.84556
2102;CONDOR LJ11 SAO BRAZ;82320010;AV. VEREADOR TOALDO TULIO, 3650, CURITIBA, BRASIL;-26.30444;-48.84556
2105;CONDOR LJ14 SJP;83040210;RUA: JOAQUIN NABUCO, 1939, SAO JOSE DOS PINHAIS, BRASIL;-26.30444;-48.84556
2106;CONDOR APUCARA. LJ15;86804000;RUA MINAS GERAIS, 881, APUCARANA, BRASIL;-26.30444;-48.84556
2107;CONDOR AHU;82200530;AV. ANITA GARIBALDI, 1729, CURITIBA, BRASIL;-26.30444;-48.84556
2109;CONDOR LJ19 N. RUSSI;84051410;AV. JOAO MANOEL SANTOS RIBAS, 555, PONTA GROSSA, BRASIL;-26.30444;-48.84556
2110;CONDOR LJ20 MARINGA;87020085;AV PARANA, 1600, MARINGA, BRASIL;-26.282166;-48.8404458
2111;CONDOR LJ01 UMBARA;81930360;NICOLA PELANDA 250, CURITIBA, BRASIL;-26.30444;-48.84556
2214;CONDOR LJ 25 RAIA;83206200;RUA MANOEL PEREIRA, 1615, PARANAGUA, BRASIL;-26.4911136;-49.1151449
2332;CONDOR CRISTO REI;80050150;RUA FIORAVANTE DALLA STELLA, 66, CURITIBA, BRASIL;-26.30444;-48.84556
3854;CONDOR LJ34 XAXIM;81020010;AV BRASILIA  ESQ COM LINHA VERDE, 6900, CURITIBA, BRASIL;-26.30444;-48.84556
4132;CONDOR LJ26 TORRES;81560000;AV COMENDADOR FRANCO, 6005, CURITIBA, BRASIL;-26.30444;-48.84556
5072;CONDOR CAJURU;82930210;RUA NATAL, 1155, CURITIBA, BRASIL;-26.30444;-48.84556
5164;CONDOR AGUA VERDE;80620200;AV. AGUA VERDE, 860, CURITIBA, BRASIL;-26.30444;-48.84556
5503;CONDOR COLOMBO;83408000;EST DA RIBEIRA, BR 476 KM 14, COLOMBO, BRASIL;-26.30444;-48.84556
5771;CONDOR CASTRO;84165690;TRV CORONEL OLEGARIO DE MACEDO, 57, CASTRO, BRASIL;-26.30444;-48.84556
6310;CONDOR CAMPO CUMPRID;81270330;RUA JOAO DEMBINSKI, 1410, CURITIBA, BRASIL;-26.30444;-48.84556
6311;CONDOR LJ39 JACOB P.;83325582;AV JACOB MACANHAN, 1092, PINHAIS, BRASIL;-26.30444;-48.84556
7366;CONDOR MARINGA COLOM;87030120;AVENIDA COLOMBO, 3404, MARINGA, BRASIL;-26.30444;-48.84556
10505;CONDOR LJ44 OFC.PG;84035310;RUA DR LEOPOLDO GUIMARAES DA CUNHA, 330, PONTA GROSSA, BRASIL;-25.1097292048514;-50.1554632896317
10537;CONDOR FILIAL 43;83503000;R ANTONIO JOHNSON, 4364, ALMIRANTE TAMANDARE, BRASIL;-26.30444;-48.84556
10853;CONDOR JD CARVALHO;84016210;AVENIDA MONTEIRO LOBATO, 2180, PONTA GROSSA, BRASIL;-26.30444;-48.84556
11168;CONDOR LJ46 CAMPO L.;83606360;RUA EMA TANER DE ANDRADE, 189, CAMPO LARGO, BRASIL;-26.30444;-48.84556
11646;CONDOR LJ47 IRAI P.;83321007;AVENIDA IRAI, 421, PINHAIS, BRASIL;-26.30444;-48.84556
11870;CONDOR JOINVILL LJ48;89210085;RUA FLORIANOPOLIS, 100, JOINVILLE, BRASIL;-26.3227769;-48.8405697
11922;CONDOR FILIAL 45;83701440;RUA CAPIVARI, 65, ARAUCARIA, BRASIL;-26.30444;-48.84556
12248;CONDOR BOA VISTA;82560040;RUA LODOVICO GERONAZZO, 805, CURITIBA, BRASIL;-26.30444;-48.84556
13187;CONDOR LJ50 STA QT;81930165;RUA JOAO ALENCAR GUIMARAES 2126, CURITIBA, BRASIL;-26.30444;-48.84556
13831;CONDOR LJ51 AMERICA;89204200;RUA ALMIRANTE BARROSO, 716, JOINVILLE, BRASIL;-26.2819007;-48.8512868
13919;CONDOR CAMPO MOURAO;87302385;AV PRESIDENTE TANCREDO DE ALMEIDA, 371, CAMPO MOURAO, BRASIL;-26.30444;-48.84556
13981;CONDOR LJ53 J.BETTEG;81350000;RUA JOAO BETTEGA, 3930, CURITIBA, BRASIL;-26.30444;-48.84556
14019;CONDOR LJ52 MAFRA;89300000;AV PREFEITO FREDERICO HEYSE, 1000, MAFRA, BRASIL;-26.1195242;-49.8074854
14227;CONDOR LJ54 DEROSSO;81720000;FRANCISCO DEROSSO, 3300, CURITIBA, BRASIL;-26.30444;-48.84556
14483;CONDOR LJ05 WENC.BRZ;81010000;AV PRESIDENTE WENCESLAU BRAZ, 790, CURITIBA, BRASIL;-26.30444;-48.84556
14746;CONDOR LJ55 JARAGUA;89252482;RUA MARIA UMBELINA DA SILVA, 40, JARAGUA DO SUL, BRASIL;-26.4786128;-49.106228
14868;CONDOR LJ56 PIRAQ.;83301010;AV GETULIO VARGAS, 1218, PIRAQUARA, BRASIL;-26.307418;-48.8456993
15105;CONDOR LJ57 COMASA;89228310;RUA: ALBANO SCHMIDT, 4764, JOINVILLE, BRASIL;-26.2767222;-48.8106525
15330;CONDOR LJ58 PILARZ.;82120000;AMAURY LANGE SILVERIO, 1130, CURITIBA, BRASIL;-26.30444;-48.84556
16497;GIGANTE ATACADISTA;83402000;ROD DA UVA, 1976, COLOMBO, BRASIL;-26.30444;-48.84556
16787;GIGANTE  ATACADISTA;83326670;EST DA GRACIOSA, 504, PINHAIS, BRASIL;-26.30444;-48.84556
17012;CONDOR UMBARA CD;81930165;RUA ESTRADA DO GANCHINHO, 690, CURITIBA, BRASIL;-26.30444;-48.84556
17083;CONDOR LJ61 J.AMERIC;81540220;RUA DOUTOR BRASILIO FERREIRA DA LUZ, 101, CURITIBA, BRASIL;-26.30444;-48.84556
18182;CONDOR FZD RIO GRAND;83824245;AV PORTUGAL, 2170, FAZENDA RIO GRANDE, BRASIL;-26.30444;-48.84556
18346;CONDOR LJ 67 RUSSIA;84070000;AV ERNESTO VILELA, 1701, PONTA GROSSA, BRASIL;-26.30444;-48.84556
18393;CONDOR LJ66 CACHOEIR;82220000;AV ANITA GARIBALDI, 6148, CURITIBA, BRASIL;-26.30444;-48.84556
400;IMPERATRIZ ESTREITO;88070800;RUA GAL.LIBERATO BITTENCOURT, 410, FLORIANOPOLIS, BRASIL;-26.30444;-48.84556
404;IMPERATRIZ COQUEIROS;88080000;AV. MAX DE SOUZA, 740, FLORIANOPOLIS, BRASIL;-26.30444;-48.84556
405;IMPERATRIZ CAMPINAS;88101200;AV. JOSUE DI BERNARDI, 34, SAO JOSE, BRASIL;-26.30444;-48.84556
407;IMPERATRIZ MAURO RAM;88020300;AV. MAURO RAMOS, 982, FLORIANOPOLIS, BRASIL;-26.30444;-48.84556
408;IMPERATRIZ SHOPPING;88015530;RUA BOCAIUVA, 2468, FLORIANOPOLIS, BRASIL;-26.30444;-48.84556
411;IMPERATRIZ STO AMAR;88140000;RUA MAJOR JOAQUIM DE CAMPOS, 6037, SANTO AMARO DA IMPERATRIZ, BRASIL;-27.68806;-48.77861
412;IMPER PONTE DO IMAR;88130000;RUA ANICETO ZACCHI, 222, PALHOCA, BRASIL;-26.30444;-48.84556
431;IMPERATRIZ CANASVIE;88085150;AV. DAS NACOES, 192, FLORIANOPOLIS, BRASIL;-26.30444;-48.84556
4203;IMPERATRIZ CORREG G;88037001;RUA JOAO PIO DUARTE DA SILVA, 1623, FLORIANOPOLIS, BRASIL;-26.30444;-48.84556
4475;IMPERATRIZ FPO SHOP;88032000;RODOVIA: VIRGILIO VARZEA, 587, FLORIANOPOLIS, BRASIL;-26.30444;-48.84556
10066;IMPERATRIZ JURER IN;88053701;RODOVIA MAURICIO SIROTSKY SOBRINHO, 5451, FLORIANOPOLIS, BRASIL;-26.30444;-48.84556
14229;IMPERATRIZ TRINDADE;88036000;LAURO LINHARES, 2010, FLORIANOPOLIS, BRASIL;-26.30444;-48.84556
15114;IMPERATRIZ SACO DOS;88045520;JOSE BROGNOLI, 10, FLORIANOPOLIS, BRASIL;-26.30444;-48.84556
16370;SUPER IMPERATRIZ;89101000;AV. PRESIDENTE KENNEDY, 861, SAO JOSE, BRASIL;-26.30444;-48.84556
16521;IMPERATRIZ 37 JLLE;89204003;RUA: DOUTOR JOAO COLIN, 1777, JOINVILLE, BRASIL;-26.2848046;-48.8495712
17789;IMPERATRIZ;88047902;VIA TR VP 003, 6200, FLORIANOPOLIS, BRASIL;-26.30444;-48.84556
3196;MERCADORAMA LJ 036;80060010;RUA MARECHAL DEODORO, N. 991, CURITIBA, BRASIL;-26.26297;-51.1008748
3198;MERCADORAMA LJ 042;80030001;RUA JOAO GUALBERTO, N. 1573, CURITIBA, BRASIL;-26.30444;-48.84556
3200;MERCADORAMA LJ 046;81530256;RUA ANA BERTHA ROSKAMP, 10, CURITIBA, BRASIL;-26.30444;-48.84556
3211;MERCADORAMA LJ 873;80230090;RUA VINTE E QUATRO DE MAIO, N. 765, CURITIBA, BRASIL;-25.42778;-49.27306
3215;BIG CAMBORIU;88330000;AVENIDA BRASIL, 3660, BALNEARIO CAMBORIU, BRASIL;-26.30444;-48.84556
3290;MERCADORAMA LJ 035;80420000;RUA COMENDADOR ARAUJO, N. 370, CURITIBA, BRASIL;-26.30444;-48.84556
3292;MERCADORAMA LJ 039;80420010;AV. VICENTE MACHADO, N. 18, CURITIBA, BRASIL;-26.30444;-48.84556
7796;BIG - LAGES;88508620;AVENIDA GETULIO VARGAS, 232, LAGES, BRASIL;-26.3189635;-48.8451398
15070;CARREFOUR CABRAL;80035130;AV PARANA, 1250, CURITIBA, BRASIL;-26.30444;-48.84556
15133;CARREFOUR PAROLIN CW;80220000;AV MARECHAL FLORIANO PEIXOTO, 3031, CURITIBA, BRASIL;-26.30444;-48.84556
15134;CARREFOUR CHAMPAGNAT;81200110;DEP HEITOR ALENCAR FURTADO, 1210, CURITIBA, BRASIL;-26.30444;-48.84556
16622;TODO DIA CASTRO;84172060;DOUTOR JAVERT MADUREIRA, SN, CASTRO, BRASIL;-26.30444;-48.84556
18187;SUPERMERCADO CARREFO;80035130;AVENIDA PARANA, 1250, CURITIBA, BRASIL;-26.30444;-48.84556
2421;WAL MART - PORTAO;80320300;AV. PRES. ARTHUR DA S BERNARDES, 1250, CURITIBA, BRASIL;-26.30444;-48.84556
3190;BIG - MARINGA TUIUTI;87040360;AVENIDA TUIUTI, 710, MARINGA, BRASIL;-26.30444;-48.84556
3191;BIG - BOA VISTA;82510290;RUA CANADA, N. 1889, CURITIBA, BRASIL;-26.30444;-48.84556
3194;BIG - PINHEIRINHO;81130000;RUA WINSTON CHURCHILL, N. 1734, CURITIBA, BRASIL;-26.30444;-48.84556
1126;MUFFATO SJP CENTRO;83005000;AV. XV DE NOVEMBRO, 2401, SAO JOSE DOS PINHAIS, BRASIL;-25.5302;-49.20836
2080;MUFFATO PORTAO;81020770;RUA EDUARDO CARLOS PEREIRA, 3605, CURITIBA, BRASIL;-26.30444;-48.84556
2216;MUFFATO NOVA RUSSIA;84053000;AV. DOM PEDRO I I, 350, PONTA GROSSA, BRASIL;-26.30444;-48.84556
2217;MUFFATO HOLARIAS;84035300;RUA JACOB HOLZMANN, 333, PONTA GROSSA, BRASIL;-26.30444;-48.84556
2307;MUFFATO HAUER;81630000;RUA MARECHAL FLORIANO PEIXOTO, 6400, CURITIBA, BRASIL;-26.30444;-48.84556
5091;MUFFATO JUVEVE;80530300;RUA ALBERTO FULLONI,  420, CURITIBA, BRASIL;-26.30444;-48.84556
11173;MUFFATO UVARANAS;84031050;RUA VICENTE SPOSITO, 205, PONTA GROSSA, BRASIL;-26.30444;-48.84556
15107;MUFFATO STA FEL LJ96;82320010;AV VEREADOR TOALDO TULIO, 2184, CURITIBA, BRASIL;-26.30444;-48.84556
2490;TOZETTO OFICINA;84045320;RUA FRANCO GRILO, 200, PONTA GROSSA, BRASIL;-26.30444;-48.84556
2491;TOZETTO JD CARVALHO;84016210;AV MONTEIRO LOBATO, 1951, PONTA GROSSA, BRASIL;-26.30444;-48.84556
2492;TOZETTO ESTRELA;84040160;RUA AMAZONAS, 167, PONTA GROSSA, BRASIL;-26.30444;-48.84556
10424;TOZETTO NOVA RUSSIA;84070000;AVENIDA ERNESTO VILELA, 2220, PONTA GROSSA, BRASIL;-26.30444;-48.84556
17357;SUPERMERCADO TOZETTO;84172260;R CONSELHEIRO JESUINO MARCONDES, 850, CASTRO, BRASIL;-26.30444;-48.84556
801;COOPER MAFISA*;89056600;RODOVIA BR 470 KM 53, SN, BLUMENAU, BRASIL;-26.30444;-48.84556
825;COOPER AGUA VERDE*;89041002;RUA GENERAL OSORIO, 2070, BLUMENAU, BRASIL;-26.30444;-48.84556
833;COOPER OMINO*;89040002;RUA DOS CACADORES, 2405, BLUMENAU, BRASIL;-26.30444;-48.84556
834;COOPER GLORIA;89025300;RUA DA GLORIA, 344, BLUMENAU, BRASIL;-26.30444;-48.84556
874;COOPER RODEIO;89136000;RUA BARAO DO RIO BRANCO, 2080, RODEIO, BRASIL;-26.2532351;-49.3800767
1040;COOPER NCC;89130000;RUA MARECHAL FLORIANO PEIXOTO, 834, INDAIAL, BRASIL;-26.30444;-48.84556
1379;COOPER IBIRAMA*;89140000;RUA MIRADOR, SN, IBIRAMA, BRASIL;-26.30444;-48.84556
6944;COOPER GARCIA*;89022000;RUA AMAZONAS, 3000, BLUMENAU, BRASIL;-26.30444;-48.84556
7638;COOPER NACOES;89130000;AVENIDA MANOEL SIMAO, 1040, INDAIAL, BRASIL;-26.30444;-48.84556
7699;COOPER VILA NOVA;89259700;RUA WALTER MARQUARDT, 225, JARAGUA DO SUL, BRASIL;-26.4975365;-49.867549
7701;COOPER BARRA;89260200;RUA PADRE ALUISIO BOEING, 86, JARAGUA DO SUL, BRASIL;-26.5135359;-49.1208342
7702;COOPER CENTRO;89251600;RUA REINOLDO RAU, 660, JARAGUA DO SUL, BRASIL;-26.4895133;-49.815052
13111;COOPER VILA NOVA*;89035100;RUA BENJAMIM CONSTANT, 2597, BLUMENAU, BRASIL;-26.30444;-48.84556
14735;COOPER TIMBO*;89120000;RUA ARISTILIANO RAMOS, 465, TIMBO, BRASIL;-26.30444;-48.84556
15555;COOPER AGUA VERD II*;89254500;RUA JOAO WIEST JUNIOR, 1399, JARAGUA DO SUL, BRASIL;-26.4731932;-49.1117897
16122;COOPER ITOUPAVA NOR*;89052504;DOIS DE SETEMBRO, 3162, BLUMENAU, BRASIL;-26.30444;-48.84556
16428;COOPER HERING FILIAL;89110119;R. PREFEITO LEOPOLDO SCHRAMM, 691, GASPAR, BRASIL;-26.30444;-48.84556
17250;COOPER ATACAREJO JOI;89206101;RUA PREFEITO HELMUTH FALLGATTER, 2905, JOINVILLE, BRASIL;-26.2907499;-48.8146079
17397;COOPER ATACAREJO;89258468;JOSE THEODORO RIBEIRO, 2505, JARAGUA DO SUL, BRASIL;-26.4856854;-49.485796
17541;COOPER ATACAREJO GUA;89270000;RUA ALDANO JOSE VIEIRA, 455, GUARAMIRIM, BRASIL;-26.4705787;-48.9771511
18014;COOPER AVENTUREIRO S;89226000;RUA TUIUTI, 2295, JOINVILLE, BRASIL;-26.2517809;-48.8202807
18027;COOPER FILIAL BLUMEN;89069100;RUA RICARDO GEORG, 121, BLUMENAU, BRASIL;-26.30444;-48.84556
18329;COOPER JOAO PESSOA;89257407;RUA MANOEL FRANCISCO DA COSTA, 4220, JARAGUA DO SUL, BRASIL;-26.4577309;-49.424433
2196;FESTVAL AGUA VERDE;80320040;R. PROF. ALVARO JORGE, 75, CURITIBA, BRASIL;-26.30444;-48.84556
2197;FESTVAL BRIGADEIRO;80430210;RUA BRIGADEIRO FRANCO , 641, CURITIBA, BRASIL;-26.30444;-48.84556
2198;FESTVAL MERCES;80810980;AV. MANOEL RIBAS 1396, CURITIBA, BRASIL;-26.30444;-48.84556
2342;FESTVAL BARIGUI;80710570;AV CANDIDO HARTMANN, 1580  ANEXO JACAREZ, CURITIBA, BRASIL;-26.30444;-48.84556
10531;FESTVAL STA FELICIDA;82320000;RUA PROFESSOR FRANCISCO ZARDO, 58, CURITIBA, BRASIL;-26.30444;-48.84556
12220;FESTVAL CENTRO CIVIC;80530010;RUA MATEUS LEME, 1850, CURITIBA, BRASIL;-26.30444;-48.84556
13918;FESTVAL SAO LOURENCO;82200000;RUA MATEUS LEME , 4556, CURITIBA, BRASIL;-26.30444;-48.84556
13978;FESTVAL ESTACAO;80230000;AV SILVA JARDIM, 506, CURITIBA, BRASIL;-26.30444;-48.84556
14220;FESTVAL ALPHAVILLE;83327076;RUA JAGUARIAIVA, 92, PINHAIS, BRASIL;-26.30444;-48.84556
14282;FESTVAL TORRES;81530440;AV COMENDADOR FRANCO, 4160, CURITIBA, BRASIL;-26.30444;-48.84556
14593;FESTVAL SHOPPING;81200100;RUA PROF PEDRO VIRIATO P DE SOUZA, 600, CURITIBA, BRASIL;-25.42778;-49.27306
15355;FESTVAL JD SOCIAL;82520020;R ARQUIMEDES CRUZ, 85, CURITIBA, BRASIL;-26.30444;-48.84556
15356;FESTVAL BATEL;80420170;R CORONEL DULCIDIO, 880, CURITIBA, BRASIL;-26.30444;-48.84556
15357;FESTVAL REP ARGENTIN;80240210;AV REPUBLICA ARGENTINA, 449, CURITIBA, BRASIL;-26.30444;-48.84556
15553;FESTVAL/BEAL LJ01 -;85819359;RUA DA IMIGRACAO, 89, CASCAVEL, BRASIL;-26.30444;-48.84556
15562;FESTVAL BEAL - LJ 05;85805000;AV TANCREDO NEVES, 1780, CASCAVEL, BRASIL;-26.3270233;-49.9117167
15563;FESTVAL BEAL - LJ 04;85812003;AV BRASIL, 4967, CASCAVEL, BRASIL;-26.4156149;-48.5971641
15564;FESTVAL BEAL - LJ 03;85810000;AV BRASIL, 6676, CASCAVEL, BRASIL;-26.1185252;-48.601801
15565;FESTVAL BEAL - LJ 02;85803000;AV CARLOS GOMES, 2342, CASCAVEL, BRASIL;-26.30444;-48.84556
15962;FESTVAL - TINGUI;82020250;RUA JOSE VALLE, 525, CURITIBA, BRASIL;-26.30444;-48.84556
17733;FESTVAL KENNEDY;80610010;AV PRESIDENTE KENNEDY, 3080, CURITIBA, BRASIL;-26.30444;-48.84556
18116;FESTVAL HUGO LANGE;80040180;RUA CAMOES, 991, CURITIBA, BRASIL;-26.30444;-48.84556
18117;FESTVAL SJP;83005410;RUA VERISSIMO MARQUES, 1190, SAO JOSE DOS PINHAIS, BRASIL;-26.30444;-48.84556
18118;FESTVAL CATUAI;85812500;AV BRASIL, 3561, CASCAVEL, BRASIL;-26.1915613;-48.576135
18159;FESTVAL HAUER LJ40;81630000;AV MARECHAL FLORIANO PEIXOTO, 5952, CURITIBA, BRASIL;-26.30444;-48.84556
18160;FESTVAL XAXIM LJ39;81710010;R JOSE REBELATO, 542, CURITIBA, BRASIL;-26.30444;-48.84556
18162;FESTVAL ANITA GARIBA;80540400;AV ANITA GARIBALDI, 1060, CURITIBA, BRASIL;-26.30444;-48.84556
18164;FESTVAL BISPO DOM JO;80440080;RUA BISPO DOM JOSE, 2339, CURITIBA, BRASIL;-26.30444;-48.84556
451;GIASSI CAMPINA LJ07;88101300;AV. IRINEU BORNHAUSEN, 425, SAO JOSE, BRASIL;-26.30444;-48.84556
656;GIASSI - JOINVILLE;89204000;RUA JOAO COLIN, 762, JOINVILLE, BRASIL;-26.2781189;-48.8499972
1903;GIASSI TUBARAO LJ 06;88705001;AV MARCOLINO MARTINS CABRAL, 1691, TUBARAO, BRASIL;-26.30444;-48.84556
1904;GIASSI CRICIUM LJ05;88801001;AV CENTENARIO, 3985, CRICIUMA, BRASIL;-26.30444;-48.84556
1905;GIASSI ICARA LJ 01;88200000;RUA JOAO LODETTI, 150, ICARA, BRASIL;-26.30444;-48.84556
1972;GIASSI BLUMENAU 09;89012001;RUA SAO PAULO, 1277, BLUMENAU, BRASIL;-26.30444;-48.84556
4466;GIASSI PALHOCA LJ10;88132149;AV ATILIO PEDRO PAGANI, 170, PALHOCA, BRASIL;-26.30444;-48.84556
5235;GIASSI CRICIUM LJ11;88804010;RUA HENRIQUE LAGE, 1251, CRICIUMA, BRASIL;-26.338952;-48.8207265
7092;GIASSI ARARANGUA 02;88900000;AVENIDA PRES JOAO GOULART, 228, ARARANGUA, BRASIL;-26.30444;-48.84556
7093;GIASSI ARARANGU 03;88900000;RUA CAETANO LUMMERTZ, 455, ARARANGUA, BRASIL;-26.30444;-48.84556
7094;GIASSI SOMBRIO LJ04;88960000;RUA JOAO JOSE DE GUIMARAES, 399, SOMBRIO, BRASIL;-26.30444;-48.84556
7416;GIASSI OFICINAS L13;88702102;RUA ALTAMIRO GUIMARAES, 1620, TUBARAO, BRASIL;-26.197604;-49.2662616
7549;GIASSI E CIA LTDA;88820000;RODOVIA SC 444 KM 09, ICARA, BRASIL;-26.30444;-48.84556
10498;GIASSI LJ14-BUCAREIN;89202310;RUA INACIO BASTOS, JOINVILLE, BRASIL;-26.3159581;-48.836625
13140;GIASSI LJ 15 JARAGU;89252000;RUA EX GUMERCINO DA SILVA, 311, JARAGUA DO SUL, BRASIL;-26.48611;-49.6667
15494;GIASSI ITAJAI LJ16*;88306001;AVENIDA OSVALDO REIS, 839, ITAJAI, BRASIL;-26.30444;-48.84556
18368;GIASSI FORQUILHINHA;88850000;RODOVIA GABRIEL ARNS, 5800, FORQUILHINHA, BRASIL;-26.30444;-48.84556
252;KOCH  ITAJAI 05;81305390;RUA JOSE PEREIRA LIBERATO , 1190, ITAJAI, BRASIL;-26.4428601;-48.6390208
1242;KOCH CAMBORIU;88340000;RUA MONTE AGULHAS NEGRAS, 505, CAMBORIU, BRASIL;-26.30444;-48.84556
1639;KOCH TIJUCAS;88200000;AVENIDA BAYER FILHO, 725, TIJUCAS, BRASIL;-26.30444;-48.84556
1640;KOCH TIJUCAS 01;88200000;AVENIDA BAYER FILHO, 1695, TIJUCAS, BRASIL;-26.30444;-48.84556
5011;KOCH MEIA PRAIA 06;88220000;AV NEREU RAMOS , 3855, ITAPEMA, BRASIL;-26.30444;-48.84556
5418;KOCH P. BELO LJ 07;88210000;RUA RUBENS ALVES, 1254, PORTO BELO, BRASIL;-26.30444;-48.84556
5739;KOCH BC LJ 08;88340000;RUA OSCAR VIEIRA, 545, CAMBORIU, BRASIL;-26.30444;-48.84556
6922;KOCH ITAPEMA LJ 09;88220000;AVENIDA MARGINAL OESTTE, 554, ITAPEMA, BRASIL;-26.30444;-48.84556
12201;KOCH BIGUACU LJ 13;88161708;AV. GOV. IVO DE FIGUEIREDO CAMPOS, SN, BIGUACU, BRASIL;-26.30444;-48.84556
12325;KOCH ITAPEMA LJ 14;88220000;AV NEREU RAMOS, 28 GA, ITAPEMA, BRASIL;-26.2513034;-49.3842027
13047;KOCH BC LJ 16;88330771;RUA 1061, 105, BALNEARIO CAMBORIU, BRASIL;-26.30444;-48.84556
13490;KOCH TIJUCAS LJ 19;88200000;AV JACARANDA, 158, TIJUCAS, BRASIL;-26.30444;-48.84556
13904;KOCH PENHA LJ 20;88385000;AV EUGENIO KRAUSE, 4150, PENHA, BRASIL;-26.30444;-48.84556
14605;KOCH PENHA 23;88385000;AVENIDA EUGENIO KRAUSE , 1994, PENHA, BRASIL;-26.30444;-48.84556
15287;KOCH BOMBINHA LJ 31;88215000;FLAMINGO, 462, BOMBINHAS, BRASIL;-26.1400273;-48.6015346
16132;KOCH ITAPEMA LJ 41;88220000;AVENIDA 2 AVENIDA, 1726, ITAPEMA, BRASIL;-26.695115;-48.6080647
16242;KOCH NAVEGANTES LJ44;88370206;AVENIDA: PREFEITO JOSE JUVENAL MAFRA, 21, NAVEGANTES, BRASIL;-26.30444;-48.84556
16466;KOCH FLORI LJ 47;88058300;RODOVIA JOAO GUALBERTO SOARES, 1087, FLORIANOPOLIS, BRASIL;-26.30444;-48.84556
16790;KOCH ITAPEMA LJ52;88220000;RUA 405 G3, 526, ITAPEMA, BRASIL;-26.30444;-48.84556
17675;KOCH PICARRAS LJ63;88380000;RUA VICTOR ZIMERMANN, 598, PICARRAS, BRASIL;-26.30444;-48.84556
18024;KOCH TIJUCAS AREIAS;88200000;AVENIDA PAINEIRAS, 903, TIJUCAS, BRASIL;-26.30444;-48.84556
18026;KOCH HIPERMERCADO S/;89240000;RODOVIA DUQUE DE CAXIAS, 0, SAO FRANCISCO DO SUL, BRASIL;-26.2527317;-48.6117852
18100;SUPERMERCADOS KOCH 8;89114051;RUA RODOLFO VIEIRA PAMPLONA, 340, GASPAR, BRASIL;-26.30444;-48.84556
18102;SUPERMERCADO KOCH 75;88131200;RUA VEREADOR OSVALDO DE OLIVEIRA, 4125, PALHOCA, BRASIL;-26.30444;-48.84556
1153;JACOMAR S MARCOS;83055395;ROD. BR 376 KM 19,  18.771, SAO JOSE DOS PINHAIS, BRASIL;-25.5302;-49.20836
1154;JACOMAR XAXIM;81720000;RUA FRANCISCO DEROSSO, 2680, CURITIBA, BRASIL;-26.30444;-48.84556
1156;JACOMAR AFONSO PENA;83065260;AV. RUI BARBOSA, 5285, SAO JOSE DOS PINHAIS, BRASIL;-26.30444;-48.84556
3347;JACOMAR UBERABA;81570001;A.V SENADOR SALGADO FILHO, 4.487, CURITIBA, BRASIL;-26.30444;-48.84556
4480;JACOMAR PIRAQUARA;83301000;AV GETULIO VARGAS, 945, PIRAQUARA, BRASIL;-26.30444;-48.84556
5868;JACOMAR SAO JOSE COL;83025580;RUA PEDRO TREVISAN, 58, SAO JOSE DOS PINHAIS, BRASIL;-26.30444;-48.84556
11314;JACOMAR SITIO CERCAD;81900080;RUA TIJUCAS DO SUL, 1501, CURITIBA, BRASIL;-26.30444;-48.84556
12219;JACOMAR GUATUPE;83060000;AV THOMAZ CARMELIANO DE MIRANDA, 345, SAO JOSE DOS PINHAIS, BRASIL;-25.5302;-49.20836
13022;JACOMAR UBERABA;81590180;RUA EUNICE BETTINI BARTOSZECK, 1990, CURITIBA, BRASIL;-26.30444;-48.84556
13247;JACOMAR LJ 12;81750400;RUA MAE CARLOS FRANK, 2812, CURITIBA, BRASIL;-26.30444;-48.84556
14478;JACOMAR WEISSOPOLIS;83322000;RUA RIO PARANA, 1274, PINHAIS, BRASIL;-26.30444;-48.84556
16788;JACOMAR DANILENKO;83311090;RUA JURI DANILENKO, 4243, PIRAQUARA, BRASIL;-26.30444;-48.84556
17450;JACOMAR CAPAO RASO;81050200;RUA PEDRO GUSSO, 1089, CURITIBA, BRASIL;-26.30444;-48.84556
18218;JACOMAR CIDADE JARDI;83040210;RUA JOAQUIM NABUCO, 880, SAO JOSE DOS PINHAIS, BRASIL;-26.30444;-48.84556
11974;BISTEK-CRIC DOLARIO;88802080;RUA DOLARIO DOS SANTOS, 168, CRICIUMA, BRASIL;-26.30444;-48.84556
11975;BISTEK-BLU GARCIA;89020001;RUA AMAZONAS, 466, BLUMENAU, BRASIL;-26.30444;-48.84556
11976;BISTEK - LAGES;88523000;RUA LUIZ DE CAMOES, 795, LAGES, BRASIL;-26.30444;-48.84556
11977;BISTEK BC LOJA 6;88330702;RUA 511, 130, BALNEARIO CAMBORIU, BRASIL;-26.30444;-48.84556
11978;BISTEK - BRUSQUE;88351300;RUA OTTO RENAUX, 377, BRUSQUE, BRASIL;-26.30444;-48.84556
11979;BISTEK - JOINVILLE;89227470;RUA TUIUTI, 1500, JOINVILLE, BRASIL;-26.2580314;-48.8196456
11980;BISTEK-CRIC CENTEN;88802000;RUA CENTENARIO, 3420, CRICIUMA, BRASIL;-26.2341893;-49.3965382
11982;BISTEK-FLP COSTEIRA;88047010;RUA JOAO CANCIO JACQUES,, FLORIANOPOLIS, BRASIL;-26.30444;-48.84556
11983;BISTEK-SJ BELA VIST;88110798;RUA OSVALDO JOSE DO AMARAL, S/N, SAO JOSE, BRASIL;-27.575650304162;-48.6246571865073
11984;BISTEK-BLU ITOUPAVA;89052381;RUA V EX PAUL FRITZ KUEHNRICH, 1600 SL11, BLUMENAU, BRASIL;-26.91944;-49.6611
11985;BISTEK-ITAJA SAO JO;88304101;RUA HEITOR LIBERATO, 1550, ITAJAI, BRASIL;-26.30444;-48.84556
11986;BISTEK-FLP MONT VER;88032310;RUA TIMBAUBA, SN, FLORIANOPOLIS, BRASIL;-26.30444;-48.84556
11987;BISTEK PALHOCA;88132149;AVENIDA: ATILIO PEDRO PAGANI,1300, PALHOCA, BRASIL;-26.30444;-48.84556
11988;BISTEK - NAVEGANTES;88370434;RUA MANOEL IZIDRO, 505, NAVEGANTES, BRASIL;-26.30444;-48.84556
13271;BISTEK  BC;88330110;RUA  QUARTA AVENIDA, 741, BALNEARIO CAMBORIU, BRASIL;-26.30444;-48.84556
13804;BISTEK-ITJAI FAZEND;88301204;RUA AVENIDA SETE SETEMBRO, 1330, ITAJAI, BRASIL;-26.30444;-48.84556
15183;BISTEK FORQUILHAS LJ;88107100;ANTANIO JOVITA DUARTE, 87, SAO JOSE, BRASIL;-26.30444;-48.84556
15428;BISTEK CD BIGUACU;88164169;RODOVIA: SC-407, 113, BIGUACU, BRASIL;-26.30444;-48.84556
15506;BISTEK 14 NOVA VENEZ;88865000;DOS IMIGRANTES, 357, NOVA VENEZA, BRASIL;-26.30444;-48.84556
16174;BISTEK COCAL DO SUL;88845000;AV ANTONIO NUNES DE SOUZA, 8, COCAL DO SUL, BRASIL;-28.60111;-49.32583
6355;HIPERMAIS PROFIPO;89233550;RUA WALDEMIRO JOSE BORGES, 740, JOINVILLE, BRASIL;-26.3623777;-48.8399788
11210;HIPER MAIS VILA NOV*;89237001;RUA QUINZE DE NOVEMBRO, 8507, JOINVILLE, BRASIL;-26.2880694;-48.9162964
13811;HIPER MAIS JARAGUA*;89257000;RUA MANOEL FRANCISCO DA COSTA, 550, JARAGUA DO SUL, BRASIL;-26.4728562;-49.391816
14228;HIPER MAIS ARAQUARI*;89245000;RODOVIA: A 280 A, 7399, ARAQUARI, BRASIL;-26.3952655;-48.8099915
15686;HIPER MAIS FATIMA*;89229120;MARECHAL LUZ, 1100, JOINVILLE, BRASIL;-26.3218443;-48.8151938
16116;HIPER MAIS LJ 04*;89230214;RUA MONSENHOR GERCINO, 4248, JOINVILLE, BRASIL;-26.3406524;-48.8113192
17925;HIPER MAIS PANAGUA;89231720;RUA JOAO LUIZ DE MIRANDA COUTINHO, 190, JOINVILLE, BRASIL;-26.3469258;-48.7861551
18061;HIPER MAIS ANITA;89202002;AVENIDA GETULIO VARGAS, 1446, JOINVILLE, BRASIL;-26.3209188;-48.8461995
15538;PASSARELA CONC CENTE;89700071;RUA ORESTES FARINA, 50, CONCORDIA, BRASIL;-26.30444;-48.84556
15539;PASSARELA HERVAL;89610000;RUA LUIZ FOPPA, 50, HERVAL D OESTE, BRASIL;-26.30444;-48.84556
15540;PASSARELA INDEPEN CO;89700202;RUA: DA INDEPENDONCIA, 91, CONCORDIA, BRASIL;-26.30444;-48.84556
15541;PASSARELA ERECHIM;99711320;AV JOSE OSCAR SALAZAR, 95, ERECHIM, BRASIL;-26.30444;-48.84556
15542;VIA ATACADISTA CACAD;89510620;RODOVIA: HONORINO MORO, 451, CACADOR, BRASIL;-26.30444;-48.84556
15543;VIA ATACADISTA VIDEI;89562730;RODOVIA: SC 135, 0, VIDEIRA, BRASIL;-26.30444;-48.84556
15544;VIA ATACADISTA CURIT;89520000;AVENIDA: DR LEOBERTO LEAL, 1647, CURITIBANOS, BRASIL;-26.30444;-48.84556
15545;VIA ATACADISTA CANOI;89466076;AVENIDA DOS EXPEDICIONARIOS, 309, CANOINHAS, BRASIL;-26.1872855;-50.3616075
15915;VIA ATAC. CHAPECO;89804250;RUA CRISTOVAO COLOMBO, 0, CHAPECO, BRASIL;-26.30444;-48.84556
16083;VIA ATACADISTA FARRO;95178212;RUA ANDRE COLOMBO, 5001, FARROUPILHA, BRASIL;-26.30444;-48.84556
16260;PASSARELA MARCELINO;89709006;RUA MARCELINO RAMOS, 293, CONCORDIA, BRASIL;-26.30444;-48.84556
16897;VIA ATAC. SANTA C.;96810970;AV DEP EUCLIDES NICOLAU KLIEMANN, 1661, SANTA CRUZ DO SUL, BRASIL;-29.7175;-52.42583
17213;VIA ATAC. CAPINZAL;89665000;ACESSO CIDADE ALTA DONA MARCIA MARGARIDA, CAPINZAL, BRASIL;-27.3620449920939;-51.6017634318908
17318;PASSARELA LAJEADO;95913176;ROD BR-386 - 2839 - TERREOKM 346 SHOPPIN, LAJEADO, BRASIL;-26.30444;-48.84556
17805;VIA ATAC PORTO ALEGR;91140000;AV ASSIS BRASIL 8600, PORTO ALEGRE, BRASIL;-26.30444;-48.84556
17880;VIA ATAC TEUTONIA;95890000;RUA SANTOS DUMONT 515, TEUTONIA, BRASIL;-26.2384481;-51.853707
18049;VIA ATAC CAXIAS II;95043240;RUA DR MARIO LOPES, 1210, CAXIAS DO SUL, BRASIL;-26.30444;-48.84556
18129;VIA ATAC CANOAS;92010134;AV GETULIO VARGAS QUADRA 05 6860, CANOAS, BRASIL;-26.30444;-48.84556
18338;PASSARELA CHAPECO;89805000;AVENIDA GETULIO DORNELES VARGAS, 1719, CHAPECO, BRASIL;-26.30444;-48.84556
16025;SUPER BARATAO  LJ11;84070000;RUA ERNESTO VIEIRA, 1461, PONTA GROSSA, BRASIL;-26.30444;-48.84556
16026;SUPERPAO LJ38 S.M.S;83900000;TENENTE MAX WOLF FILHO, 1387, SAO MATEUS DO SUL, BRASIL;-25.87417;-50.38278
16028;SUPERPAO S/A;85260000;R DUQUE DE CAXIAS S/N, MANOEL RIBAS, BRASIL;-26.30444;-48.84556
16029;SUPERPAO LJ21;85020000;GUAIRA, 5555, GUARAPUAVA, BRASIL;-26.30444;-48.84556
16030;COMPRE MAIS LJ17;85200000;AV GETULIO VARGAS, 920, PITANGA, BRASIL;-26.3189635;-48.8451398
16031;SUPERPAO PINHAO LJ30;85170000;FRANCISCO DELLE, 30, PINHAO, BRASIL;-26.30444;-48.84556
16032;SUPER PAO OBA LJ28;85170000;AV TRIFON HANISZ, 70, PINHAO, BRASIL;-26.30444;-48.84556
16033;SUPERPAO LJ22;85108000;AV MICHAEL MOOR, 1445, GUARAPUAVA, BRASIL;-26.30444;-48.84556
16034;SUPERPAO OBA LJ05;85020250;MARECHAL FLORIANO PEIXOTO, 2048, GUARAPUAVA, BRASIL;-26.30444;-48.84556
16035;OBA  LJ 29 ATACADO;85060010;DOS EUCALIPTOS, 427, GUARAPUAVA, BRASIL;-26.30444;-48.84556
16037;SUPERPAO LJ09 XV;85065000;XV DE NOVEMBRO, 6686, GUARAPUAVA, BRASIL;-26.30444;-48.84556
16038;SUPERPAO LJ03 SALDAN;85010290;SALDANHA MARINHO, 973, GUARAPUAVA, BRASIL;-26.30444;-48.84556
16046;COMPRE MAIS CAMP 040;89294000;BR  SC 418, CAMPO ALEGRE, BRASIL;-26.1648631;-49.2245033
16052;SUPERPAO LJ 39*;89400000;AVENIDA: JOAO PESSOA, 2922, PORTO UNIAO, BRASIL;-26.2526456;-51.867164
16053;SUPERPAO LJ 36;85803740;RUA PADRE ANCHIETA, 598, CASCAVEL, BRASIL;-26.2947704;-48.8619786
16054;SUPERPAO LJ 35;85555000;R SETE DE SETEMBRO, 2300, PALMAS, BRASIL;-26.3043872;-48.8428629
16055;SUPERPAO LJ 34;85555000;R SANTA CATARINA, 260, CORONEL VIVIDA, BRASIL;-26.30444;-48.84556
16056;SUPERPAO LJ 33*;84600000;RUA LUIZA MARIA WALDRAFF, 18, UNIAO DA VITORIA, BRASIL;-26.30444;-48.84556
16057;SUPERPAO LJ 32;85503180;RUA MOACIR DE JESUS MARTINS, 130, PATO BRANCO, BRASIL;-26.30444;-48.84556
16058;SUPERPAO LJ 31;85460000;RUA JUAZEIRO, 1429, QUEDAS DO IGUACU, BRASIL;-26.30444;-48.84556
16059;SUPERPAO LJ 27;85506095;AV TUPI, 5110, PATO BRANCO, BRASIL;-26.30444;-48.84556
16060;SUPERPAO LJ 16;89500067;RUA: PRUDENTE DE MORAIS, 60, CACADOR, BRASIL;-26.2326196;-51.841759
16063;SUPERPAO UNI. LJ 10*;84600000;RUA PRUDENTE DE MORAIS, 516, UNIAO DA VITORIA, BRASIL;-26.2365154;-51.901658
16064;SUPERPAO LJ 08*;84600000;AV BENTO MUNHOZ DA ROCHA NETO, 866, UNIAO DA VITORIA, BRASIL;-26.222170332514;-51.928059742548
16065;SUPERPAO LJ 07;86870000;RUA SANTA CATARINA, 880, IVAIPORA, BRASIL;-26.37769;-48.8433362
16066;SUPERPAO LJ 02;85400000;AV MANOEL RIBAS, 390, GUARANIACU, BRASIL;-26.30444;-48.84556
16124;SUPERPAO LJ18;84400000;CORONEL JOAO PEDRO MARTINS, 1380, PRUDENTOPOLIS, BRASIL;-26.30444;-48.84556
16576;COMPRE MAIS MAFR 044;89300160;RUA PEREIRA OLIVEIRA, 720, MAFRA, BRASIL;-26.1159618;-49.8065935
16578;GERMANIA SEMINAR 043;89295000;RUA CAPITAO OSMAR ROMA DA SILVA, 303, RIO NEGRINHO, BRASIL;-26.25444;-49.51833
16581;COMPRE MAIS SERR 045;89291790;RUA MAHIAS NOSSOL, 225, SAO BENTO DO SUL, BRASIL;-26.30444;-48.84556
16583;COMPRE MAIS INDU 042;89295000;RODOVIA BR 280, 2360, RIO NEGRINHO, BRASIL;-26.2423774;-49.4721509
16584;GERMANIA COLONIA 053;89288070;RUA ANTONIO KAESEMODEL, 1173, SAO BENTO DO SUL, BRASIL;-26.2409648;-49.3900496
16585;GERMANIA HIPER 051;89280388;RUA CAPITAO ERNESTO NUNES, 669, SAO BENTO DO SUL, BRASIL;-26.2438887;-49.3757105
16586;GERMANIA CENTRO 046;89280174;RUA JORGE LACERDA, 70, SAO BENTO DO SUL, BRASIL;-26.2490163;-49.3833419
16859;SUPERPAO LJ 54 ORFAS;84015255;R BALDUINO TAQUES, 2100, PONTA GROSSA, BRASIL;-26.30444;-48.84556
17079;SUPERPAO COMPRE MAIS;85065280;RUA TREZE DE JUNHO, 1028, GUARAPUAVA, BRASIL;-26.30444;-48.84556
17725;SUPERMERCADO SUPERPA;84240000;RUA PREFEITO GUMERCINDO SGUARIO, 138, PIRAI DO SUL, BRASIL;-26.30444;-48.84556
17835;COMPRE MAIS VILA 058;89304491;RUA GUSTAVO ADOLFO FRIEDRICH, 1213, MAFRA, BRASIL;-26.1451301;-49.8294479
17892;SUPERMERCADO SUPERPA;84240000;RUA 21 DE ABRIL, 191, PIRAI DO SUL, BRASIL;-26.30444;-48.84556
16438;CANCAO LJ 63;87030000;AV PEDRO TAQUES, 294, MARINGA, BRASIL;-26.30444;-48.84556
16442;CANCAO  LJ 32;87053330;AVENIDA ARQUITETO NILDO RIBEIRO DA R, 34, MARINGA, BRASIL;-26.30444;-48.84556
16443;CANCAO LJ 24;86701660;RUA DANCARINO ROSADO, 556, ARAPONGAS, BRASIL;-26.30444;-48.84556
16448;CANCAO LJ 11;87013210;AVANIDA TAMANDARE, 903, MARINGA, BRASIL;-26.30444;-48.84556
16454;CANCAO  LJ 1;87015280;AVENIDA BRASIL, 4724, MARINGA, BRASIL;-26.4156149;-48.5971641
14020;ASSAI PINHEIRINHO;81690400;ROD. BR 116, 18580, CURITIBA, BRASIL;-26.30444;-48.84556
16169;ATACADO ASSAI - ATUB;81460090;ROD BR-476, 1801, CURITIBA, BRASIL;-26.30444;-48.84556
16631;ASSAI KENNEDY;80220202;AV PRESIDENTE KENNEDY, 1000, CURITIBA, BRASIL;-26.30444;-48.84556
2144;BAVARESCO PALMITAL;83206210;RUA DOUTOR ARTUR DE SOUZA COSTA, 789, PARANAGUA, BRASIL;-26.30444;-48.84556
11204;BAVARESCO CENTRO;83203610;RUA JOSE GOMES, 175, PARANAGUA, BRASIL;-26.3525693;-48.7751976
12783;BAVARESCO PRAIA LEST;83255000;ROD PR 407 ENG ARGUS THA HEYN, 300, PONTAL DO PARANA, BRASIL;-25.67361;-48.51111
17197;BAVARESCO MORRETES;83350000;RUA 31 DE OUTUBRO, 111, MORRETES, BRASIL;-26.2044325;-48.9087146
2112;CASA FIESTA ALTO XV;80050000;RUA :XV DE NOVEMBRO, 2357, CURITIBA, BRASIL;-26.30444;-48.84556
2113;CASA FIESTA IGUACU;80240031;AVENIDA IGUACU, 3534, CURITIBA, BRASIL;-26.30444;-48.84556
17590;CASA FIESTA EXPRESS;80610320;RUA ANTONIO PIETRUZA, 198, CURITIBA, BRASIL;-26.30444;-48.84556
17592;CASA FIESTA EXPRESS;81280330;RUA PROFESSOR PEDRO VIRIATO PARIGOT DE S, CURITIBA, BRASIL;-26.30444;-48.84556
17593;CASA FIESTA EXPRESS;80420120;RUA DOUTOR PEDROSA, 151, CURITIBA, BRASIL;-26.30444;-48.84556
17594;CASA FIESTA EXPRESS;80030060;RUA DA GLORIA, 175, CURITIBA, BRASIL;-26.30444;-48.84556
131;SUP SCHMIT LJ 5;88340206;RUA JOSE FRANCISCO BERNARDES, 490, CAMBORIU, BRASIL;-26.30444;-48.84556
1822;SUP SCHMIT LJ 9;88220000;AV. VER. MANOEL JOSE DOS SANTOS 854, BOMBINHAS, BRASIL;-26.30444;-48.84556
10457;SUP SCHMIT LJ7;88310003;AV DR REINALDO SCHMIT HAUSEN, 2126, ITAJAI, BRASIL;-26.30444;-48.84556
10778;SUP SCHMIT LJ 10;88215000;AV LEOPOLDO ZARLING, 1200, BOMBINHAS, BRASIL;-26.30444;-48.84556
10975;SUP SCHMIT LJ 11;88215000;AV FALCAO, 937, BOMBINHAS, BRASIL;-26.30444;-48.84556
14379;SUP SCHMIT LJ 4;88220000;AVENIDA MARGINAL OESTE, 1620, ITAPEMA, BRASIL;-26.30444;-48.84556
18248;SUP SCHMIT LJ 12;88215000;AVENIDA GIRASSOL, 1209, BOMBINHAS, BRASIL;-26.30444;-48.84556
17280;SUPER LUCAS CD;89620000;MRG RODOVIA BR 470 KM 319, CAMPOS NOVOS, BRASIL;-26.30444;-48.84556
278;SUP CENTRAL;89068001;RUA PEDRO ZIMMERMANN, 7155, BLUMENAU, BRASIL;-26.30444;-48.84556
318;SUP MOCAM MATRIZ;89121000;AVENIDA TIRADENTES, 558, RIO DOS CEDROS, BRASIL;-26.30444;-48.84556
3799;MERC SCHMOLLER;89182000;RUA WILLY SCHROEDER, 531, LONTRAS, BRASIL;-26.4103913;-49.739924
5013;SUP CENTRAL;89062100;RUA GUSTAVO ZIMMERMANN, 1365, BLUMENAU, BRASIL;-26.30444;-48.84556
5039;SUP NARDELAO;89140000;RUA MARQUES DO HERVAL , 00136, IBIRAMA, BRASIL;-26.30444;-48.84556
5166;SUPER NARDELAO;89150000;RUA: MIRADOR, 35, PRESIDENTE GETULIO, BRASIL;-26.30444;-48.84556
5907;SUP CENTRAL FORTALEZ;89057300;RUA HERMANN TRIBESS, 1026, BLUMENAU, BRASIL;-26.30444;-48.84556
7432;SUP GALEGAO III;89037500;RUA BEIJAMIN CONSTANT, 939, BLUMENAU, BRASIL;-26.30444;-48.84556
7473;MOCAM GASPAR;89110000;RUA DR NEREU RAMOS, 1007, GASPAR, BRASIL;-26.30444;-48.84556
10410;SUP GALEGAO FORTALEZ;89056001;RUA FRANCISCO VAHLDIECK, 1881, BLUMENAU, BRASIL;-26.30444;-48.84556
10449;MOCAM GASPAR FILIAL;89110000;AVENIDA DAS COMUNIDADES, 995, GASPAR, BRASIL;-26.30444;-48.84556
10472;MOCAM STA TEREZINHA*;89110000;AVENIDA FREI GODOFREDO, 1500, GASPAR, BRASIL;-26.30444;-48.84556
11001;GALEGAO LOJA 6;89117545;RUA BONIFACIO HAENDCHEN, 1120, GASPAR, BRASIL;-26.30444;-48.84556
12124;SUP CENTRAL VELHA;89046001;RUA JOSE REUTER, 961, BLUMENAU, BRASIL;-26.30444;-48.84556
16814;TOP PENHA 713;88385000;NEREU RAMOS, 473, PENHA, BRASIL;-26.30444;-48.84556
17361;TOP BARRA VELHA;88390000;WALDEMAR FRANCISCO, 434, BARRA VELHA, BRASIL;-26.30444;-48.84556
5329;SUPER SHALON;88380000;AVENIDA EMANOEL PINTO, 287, PICARRAS, BRASIL;-26.30444;-48.84556
7674;MERCADO SILVA;88385000;RUA INACIO FRANCISCO DE SOUZA, 57, PENHA, BRASIL;-26.30444;-48.84556
12965;SUPER MYATA12*;89520000;RUA FREI GASPAR, 603, CURITIBANOS, BRASIL;-26.30444;-48.84556
12966;SUPERMERCADO MYATA 1;88523000;AV. LUIZ DE CAMOES, 90, LAGES, BRASIL;-26.30444;-48.84556
12968;SUPERMERC MYATA 2-;88504010;RUA SAO JOAQUIM, 385, LAGES, BRASIL;-26.3022608;-48.8460573
12970;SUPERMERC MYATA 3*;88501000;RUA MARECHAL DEODORO, 353, LAGES, BRASIL;-26.2958096;-48.8502867
12971;SUPERMERC MYATA 4 *;89520000;AV CORONEL VIDAL RAMOS, 1161, CURITIBANOS, BRASIL;-26.30444;-48.84556
12972;SUPERMERCAD MYATA5*;88502005;PRACA VIDAL RAMOS SENIOR, 26, LAGES, BRASIL;-26.30444;-48.84556
12973;SUPER MYATA17*;88508001;AV DUQUE DE CAXIAS, 1614, LAGES, BRASIL;-26.30444;-48.84556
12974;SUPERMERC MYATA18*;88502120;RUA VIDAL RAMOS JUNIOR, 150, LAGES, BRASIL;-26.30444;-48.84556
16911;SUPERMERCADOS MYATA-;88521098;AV DAS TORRES, 1255, LAGES, BRASIL;-26.1434449;-49.8274723
4055;SUP MIG MAFRA CENTR*;89300000;AV COR JOSE SEVERIANO MAIA, 768, MAFRA, BRASIL;-26.1134446;-49.7984892
4233;SUP MIG RIO NEGRO*;83880000;AV SATURNINO OLINTO, 1900, RIO NEGRO, BRASIL;-26.30444;-48.84556
4286;SUP MIG MAFRA*;89300000;RUA GUSTAVO ADOLFO FRIEDRICH, 330, MAFRA, BRASIL;-26.1451301;-49.8294479
5517;MIG  VOLANTE;89300000;RUA JOSE BOITEX, 830, MAFRA, BRASIL;-26.30444;-48.84556
5518;SUPERMERCADO MIG *;89340000;AV ALEXANDRE RICARDO WOREL, 643, ITAIOPOLIS, BRASIL;-26.30444;-48.84556
7677;SUPER MIG VILA IVETE;89300000;RUA DR JOSE BOITEX, 830, MAFRA, BRASIL;-26.30444;-48.84556
11396;SUPER MIG *;89290000;ROD SC 301, 222, SAO BENTO DO SUL, BRASIL;-26.30444;-48.84556
12927;MIG VOLANTE;83900000;OCTAVIO DE PAULA E SILVA NR 18., SAO MATEUS DO SUL, BRASIL;-25.87417;-50.38278
13932;MIG ATACAREJO RIO N*;83880000;AV GENERAL LUIS CARLOS P TOURINHO, 3677, RIO NEGRO, BRASIL;-26.10583;-49.7975
17170;MIG ATACADO;81870010;AL NOSSA SENHORA DO SAGRADO CORACAO, 290, CURITIBA, BRASIL;-26.30444;-48.84556
441;SUP RANCHO BOM II;89253295;RUA JOAO JENUARIO AYROSO, 1616, JARAGUA DO SUL, BRASIL;-26.30444;-48.84556
1197;SUP RANCHO BOM;89275000;RUA CANDIDA TOMASELLI, N.879 SALA 01, SCHROEDER, BRASIL;-26.30444;-48.84556
3330;SUP RANCHO BOM I*;89275000;RUA MARECHAL CASTELO BRANCO, N. 5120, SCHROEDER, BRASIL;-26.4217036;-49.700008
10015;SUP RANCHO BOM III*;89256580;RUA EXPEDICIONARIO RUDI HORNBURG, 16, JARAGUA DO SUL, BRASIL;-26.4769458;-49.493658
12374;RANCHO BOM*;89260300;RUA: PASTOR ALBERT SCHNEIDER, 900, JARAGUA DO SUL, BRASIL;-26.5183796;-49.1326534
13695;RANCHO BOM GUARAMIR;89270000;RUA GERONONIMO CORREA, 444, GUARAMIRIM, BRASIL;-26.30444;-48.84556
13696;RANCHO BOM AMIZADE;89255685;RUA ROBERTO ZIEMANN, 3490, JARAGUA DO SUL, BRASIL;-26.4498472;-49.1073684
14523;RANCHO BOM CORUPA*;89278000;JOAO TOZINI, 1484, CORUPA, BRASIL;-26.4348435;-49.2352344
6736;SUPER LIDER*;84640000;RUA DR OSCAR GEYER, 267, BITURUNA, BRASIL;-26.30444;-48.84556
14828;LIDER SAO JOSE 09*;88104801;RODOVIA: BR-101 KM 210, 0, SAO JOSE, BRASIL;-26.30444;-48.84556
14961;LIDER TUBARAO 05;88708025;JOSE ALBERTO NUNES, 1211, TUBARAO, BRASIL;-26.30444;-48.84556
14962;LIDER SOMBRIO 06;88960000;LATERAL DA BR 101 PREFEITO SANTELMO BORB, SOMBRIO, BRASIL;-26.30444;-48.84556
14963;LIDER IMBITUBA 04*;88780000;AVENIDA RENATO RAMOS DA SILVA, 4134, IMBITUBA, BRASIL;-26.30444;-48.84556
14972;LIDER B. DO NORTE 1-;88750000;RODOVIA SC 370, 1473, BRACO DO NORTE, BRASIL;-26.1074652;-48.7060442
14973;LIDER ORLEANS 07*;88870000;RODOVIA SC 108, 51, ORLEANS, BRASIL;-26.396527;-48.839098
14974;LIDER C. DE BAIX 03*;88745000;RUA: JOSE ANASTACIO TEIXEIRA, 70, CAPIVARI DE BAIXO, BRASIL;-26.30444;-48.84556
16323;LIDER LAGUNA;88790000;R ANTONIO DA SILVA FERNANDES, 0, LAGUNA, BRASIL;-26.30444;-48.84556
16936;LIDER ATACADISTA;88780000;RODOVIA SC 434, 10, IMBITUBA, BRASIL;-26.30444;-48.84556
805;SUP ARCO IRIS BOA V*;89205100;RUA ALBANO SCHIMIDT, 1004, JOINVILLE, BRASIL;-26.30444;-48.84556
983;MERCADO SOL;89229000;RUA GUANABARA,1817, JOINVILLE, BRASIL;-26.3203771;-48.8245727
1485;SUP BELEM SBS;89287630;RUA JOSE WEISS, 166, SAO BENTO DO SUL, BRASIL;-26.2325228;-49.3968151
1486;SUP BELEM MAFRA*;89300000;RUA FELIPE SCHMIDT, N. 1301, MAFRA, BRASIL;-26.1131332;-49.8049765
1487;SUP BELEM RNO*;83880000;RUA RICARDO KOSTER, 54, RIO NEGRO, BRASIL;-26.30444;-48.84556
85;MERC BRASILIA I;89213401;RUA AMERICO VESPUCIO, 1527, JOINVILLE, BRASIL;-26.3338428;-48.8695294
3093;MERC BRASILIA II;89237000;RUA XV DE NOVEMBRO,  6904, JOINVILLE, BRASIL;-26.2870103;-48.9014017
3699;MERC BRASILIA III*;89213300;RUA MINAS GERAIS, 1148, JOINVILLE, BRASIL;-26.3285133;-48.8652625
12768;MERCADO BRASILIA XI;89215200;ESTRADA LAGOINHA, 515, JOINVILLE, BRASIL;-26.3324562;-48.9069
12831;MERCADO BRASILIA VII;89215000;MINAS GERAIS, 5238, JOINVILLE, BRASIL;-26.3368464;-48.8999886
13409;MERCADO BRASILIA*;89239100;RUA OLAVO BILAC, 810, JOINVILLE, BRASIL;-26.2042989;-48.9118718
13917;MERCADO BRASILIA*;89224150;RUA DAS CEGONHAS , 484, JOINVILLE, BRASIL;-26.265989;-48.813094
16792;MERCADO BRASILIA*;89214505;RUA TUPY, 2380, JOINVILLE, BRASIL;-26.3326868;-48.8772126
16801;MERCADO BRASILIA*;89270000;HERMINIO STRINGARI, 1350, GUARAMIRIM, BRASIL;-26.4601906;-48.9225262
18280;MERCADO BRASILIA ATI;89201485;RUA MINISTRO CALOGERAS, 880, JOINVILLE, BRASIL;-26.3074429;-48.8486885
3539;SUP BRUDA;89460000;AV EXPEDICIONARIO, 800, CANOINHAS, BRASIL;-26.30444;-48.84556
4161;SUP BRUDA*;89370000;AV PAPA JOAO XXIII, 1751, PAPANDUVA, BRASIL;-26.3992846;-50.1568654
7031;BRUDA 3*;89460000;RUA FRANCISCO DE PAULA PEREIRA, 891, CANOINHAS, BRASIL;-26.1798904;-50.3929608
12764;SUP BRUDA *;89490000;RUA: ALEXANDRE ADUR, 40, TRES BARRAS, BRASIL;-26.1201005;-50.3057377
16283;SUPERMERCADO BRUDA*;89462260;ROBERTO ELKE, 861, CANOINHAS, BRASIL;-26.1699557;-50.4000733
17724;SUPERMERCADO BRUDA L;89462012;RUA MAJOR VIEIRA, 1902, CANOINHAS, BRASIL;-26.3328419;-48.8453313
1575;HIPERSELECT L01*;88063600;ROD. ANTONIO LUIZ DE MOURA GONZAGA ,2765, FLORIANOPOLIS, BRASIL;-26.30444;-48.84556
1781;HIPERBOM MATRIZ MOR*;88000000;RUA FRANCISCO VIEIRA, SN, FLORIANOPOLIS, BRASIL;-26.30444;-48.84556
3858;HIPERBOM FILIAL;88010000;RODOVIA SC 406, 4823, FLORIANOPOLIS, BRASIL;-26.30444;-48.84556
5710;HIPERBOM CAMPECHE;88063000;AVENIDA PEQUENO PRINCIPE, SN, FLORIANOPOLIS, BRASIL;-26.30444;-48.84556
17234;HIPER SELECT*;88048301;ROD ANTONIO LUIS DE MOURA GONZAGA, 2797, FLORIANOPOLIS, BRASIL;-26.30444;-48.84556
496;HIPPO SUPERMERCADOS*;88015380;ALMIRANTE ALVIN, 555, FLORIANOPOLIS, BRASIL;-26.30444;-48.84556
1947;HIPPO ESPECIALIDADE*;88015600;RUA ALMIRANTE LAMEGO, 761, FLORIANOPOLIS, BRASIL;-26.30444;-48.84556
10090;HIPPO PEDRA BRANCA;88137074;RUA DA UNIVERSIDADE, SN, PALHOCA, BRASIL;-26.30444;-48.84556
12719;HIPPO SUPERMERCADOS*;88080700;RUA DESEMBARGADOUR PEDRO SILVA, 2392, FLORIANOPOLIS, BRASIL;-26.30444;-48.84556
12429;MERCADO PONTO BOM*;89218501;RUA GUILHERME, 657, JOINVILLE, BRASIL;-26.278574;-48.8659334
13429;MERCADO SUPERVILLE*;89217001;RUA BENJAMIN CONSTANT, 3079, JOINVILLE, BRASIL;-26.2849769;-48.8761021
14765;MERC BOI GORDO*;89203332;RUA: ANITA GARIBALDI, 1755, JOINVILLE, BRASIL;-26.3186791;-48.8501152
4435;SUP QUELUZ*;89460000;RUA CORONEL ALBUQUERQUE, 633, CANOINHAS, BRASIL;-26.1740264;-50.3925165
12063;QUELUZ CENTRO*;89520000;RUA LAGES, 17, CURITIBANOS, BRASIL;-26.30444;-48.84556
12065;QUELUZ CACADOR*;89500000;RUA ONIO PEDRASSANI, 645, CACADOR, BRASIL;-26.30444;-48.84556
12066;QUELUZ BOSQUE*;89520000;RUA ALTINO GONCALVES DE FARIAS, 1081, CURITIBANOS, BRASIL;-26.30444;-48.84556
12067;QUELUZ SUPERMERC;89500000;RUA BRASILIA, 960, CACADOR, BRASIL;-26.3295814;-48.871802
2004;RIO VERDE COLOMBIA;83405310;COLOMBIA, 23, COLOMBO, BRASIL;-26.3356122;-48.853712
2005;RIO VERDE RIBEIRA;83408000;ESTRADA DA RIBEIRA 05 KM 2,5, 05, COLOMBO, BRASIL;-26.3375561;-48.6695254
2006;RIO VERDE AV MARGINA;83408600;AV. MARGINAL DIREITA, 322, COLOMBO, BRASIL;-26.30444;-48.84556
5325;SUPER RIO VERDE;82820000;JOSE VERISSIMO, 1212, CURITIBA, BRASIL;-26.30444;-48.84556
6141;RIO VERDE DA UVA;83402000;RODOVIA DA UVA, 2386, COLOMBO, BRASIL;-26.30444;-48.84556
10450;RIO VERDE ATUBA;83408280;ABEL SCUISSIATO, 1567, COLOMBO, BRASIL;-26.30444;-48.84556
11421;RIO VERDE PADRE FRA;83414170;PADRE FRANCISCO BONATO, 373, COLOMBO, BRASIL;-26.30444;-48.84556
13988;RIO VERD JOSE OLIVE;82820110;JOSE DE OLIVEIRA FRANCO, 2629, CURITIBA, BRASIL;-26.30444;-48.84556
13989;RIO VERDE RIO XINGU;82840300;RIO XINGU, 192, CURITIBA, BRASIL;-26.30444;-48.84556
15447;ATACAREJO HARGER;83703265;RODOVIA BR 476, 7500, ARAUCARIA, BRASIL;-26.30444;-48.84556
15448;HARGER ATACADO E VAR;83507000;RODOVIA DOS MINERIOS, 1327, ALMIRANTE TAMANDARE, BRASIL;-26.30444;-48.84556
15449;MERCADO RIO VERDE CA;83604390;AVENIDA BOM JESUS, 785, CAMPO LARGO, BRASIL;-26.30444;-48.84556
15729;RIO VERDE ALM TAMAND;83501000;AV EMILIO JOHNSON, 755, ALMIRANTE TAMANDARE, BRASIL;-26.30444;-48.84556
17247;RIO VERDE SUP CAMPO;83404010;RUA DA PEDREIRA, 1404, COLOMBO, BRASIL;-26.3749097;-48.8411788
17618;SUPERMERCADO RIO VER;83560000;AV CRISPIM FURQUIM SIQUEIRA, 200, ITAPERUCU, BRASIL;-26.30444;-48.84556
17963;SUPERMERCADO RIO VER;83408020;RUA PASTEUR, 670, COLOMBO, BRASIL;-26.2802511;-48.8158301
18029;RIO VERDE SUPERMERCA;83540000;RUA PADRE RIBEIRO, 50, RIO BRANCO DO SUL, BRASIL;-26.30444;-48.84556
18284;RIO VERDE RODOVIA DA;83402000;ROD DA UVA, 458, COLOMBO, BRASIL;-26.30444;-48.84556
2054;SUPER MAR IPANEMA;83255000;RODOVIA PARANA , Sn, PONTAL DO PARANA, BRASIL;-26.30444;-48.84556
2055;SUPER MAR PRAIALEST;83255000;AVENIDA MARGINAL , 197, PONTAL DO PARANA, BRASIL;-26.30444;-48.84556
2220;SUPER MAR CENTRO;83260000;RUADA FONTE, 159, MATINHOS, BRASIL;-26.30444;-48.84556
2221;SUPER MAR COSTA AZUL;83260000;AVENIDA PARANAGUA , 9640, MATINHOS, BRASIL;-26.30444;-48.84556
3165;SUPER MAR FLAMINGO;83260000;AVENIDA PARANAGUA , 1037, MATINHOS, BRASIL;-26.30444;-48.84556
18375;SUPER REDE CANOAS;83255000;ROD ENG DARCI G DE MORAES, 1545, PONTAL DO PARANA, BRASIL;-25.67361;-48.51111
65;SUPER MPM;89205900;ALBANO SCHIMITT, 2296, JOINVILLE, BRASIL;-26.30444;-48.84556
97;SUP UNIDOS*;89031000;RUA BAHIA, 310, BLUMENAU, BRASIL;-26.30444;-48.84556
105;SUP CLEMENTE*;89239970;RODOVIA SC 301, 6339, JOINVILLE, BRASIL;-26.30444;-48.84556
254;SUP MATIOLA;89224150;RUA CEGONHA, 390, JOINVILLE, BRASIL;-26.1390336;-48.5996956
262;SUP RAUCH;89042000;RUA GENERAL OSORIO, 3185, BLUMENAU, BRASIL;-26.30444;-48.84556
291;MERC ACOU BENJAMIN;89217001;RUA BENJAMIN CONSTANT, 3329, JOINVILLE, BRASIL;-26.2848201;-48.8786181
320;MERC FLORIANI;89223620;RUA PROF EUNALDO VERDI, 466, JOINVILLE, BRASIL;-26.2368247;-48.8332461
336;MERCADO FONTES;89240000;RUA FRANCISCO MASCARENHAS, 1740, SAO FRANCISCO DO SUL, BRASIL;-26.227505;-48.5840624
346;MERC ALBERTON;89222100;RUA XANXERE, 432, JOINVILLE, BRASIL;-26.27228;-48.842234
478;MAGIA CANASVIEIRA*;88054010;AV DAS NACOES, 510, FLORIANOPOLIS, BRASIL;-26.30444;-48.84556
494;BRAULIO SUPERMERCADO;88053640;RUA PROFESSOR RENATO BARBOSA,160, FLORIANOPOLIS, BRASIL;-26.30444;-48.84556
515;CHICO LAGOA*;88062001;HENRIQUE V. NASCIMENTO, 77, FLORIANOPOLIS, BRASIL;-26.30444;-48.84556
820;MINI MERC VANTAGEM;89070000;RUA HEINRICH HEMMER, 366, BLUMENAU, BRASIL;-26.30444;-48.84556
891;MERC LOJA CRISTIANE;89225840;RUA HAROLDO MAUL, 17, JOINVILLE, BRASIL;-26.30444;-48.84556
899;MERC PAMPLONA;89222400;RUA TENENTE ANTONIO JOAO, 1047, JOINVILLE, BRASIL;-26.2669002;-48.8453342
903;SUP ECONOMICO*;89107000;RUA XV DE NOVEMBRO, 1522, POMERODE, BRASIL;-26.30444;-48.84556
970;SUP BEPLER;89220100;RUA RUI BARBOSA, 2247, JOINVILLE, BRASIL;-26.264772;-48.8824888
980;SUP RAUSCH FORTALEZ;89056100;RUA FRITZ KOEGLER, 365, BLUMENAU, BRASIL;-26.30444;-48.84556
984;MERC 5 ESTRELAS;89229070;RUA VICENTE LEPORACE, 421, JOINVILLE, BRASIL;-26.3167955;-48.8172236
1005;MERC BOBATO;89239700;RUA XV DE OUTUBRO, 2033, JOINVILLE, BRASIL;-26.1598634;-48.9044948
1106;KIVERDE;89218112;RUA DONA FRANCISCA, 4698, JOINVILLE, BRASIL;-26.2680604;-48.8569406
1236;MERC SOUZA*;88390000;AV DOS ACORES, 193, BARRA VELHA, BRASIL;-26.30444;-48.84556
1249;MERC 7 DE MAIO;89052000;RUA SETE DE MAIO, SN, BLUMENAU, BRASIL;-26.30444;-48.84556
1291;SUP MOURA;89065100;RUA ENGENHEIRO UDO DEEKE, 1975, BLUMENAU, BRASIL;-26.30444;-48.84556
1327;MERC VANUZA*;89110000;RUA MANOEL BITENCOURT, 607, GASPAR, BRASIL;-26.30444;-48.84556
1331;SUP BELE ROSA;89239700;RUA QUINZE DE OUTUBRO, 4505, JOINVILLE, BRASIL;-26.1447874;-48.9033781
1430;COM DIAS;89270000;RODOVIA 413 KM7, GUARAMIRIM, BRASIL;-26.30444;-48.84556
1456;MERC ELITE;89290000;RUA SCHRAMM, N. 1226, SAO BENTO DO SUL, BRASIL;-26.2529437;-49.37643
1457;SUP C E C LTDA;89290000;RUA LEONARDO KRAINSKI, 111, SAO BENTO DO SUL, BRASIL;-26.2784518;-49.3364313
1458;SUP SAO PAULO;89290000;RUA DAS MARGARIDAS, 456, SAO BENTO DO SUL, BRASIL;-26.2277162;-49.3518286
1522;MERC ECONOMIA *;88025030;RUA JOSE PEDRO GIL , 15A, FLORIANOPOLIS, BRASIL;-26.30444;-48.84556
1656;SUP FF *;88180000;JOAO HENRIQUE PAULI, 484, ANTONIO CARLOS, BRASIL;-26.30444;-48.84556
1747;SUP SUL DO RIO;88000000;RUA JOAO BORN,   2.095, PALHOCA, BRASIL;-26.30444;-48.84556
1751;MERC DO BETO;88058510;DANTE DE PATTA, 45, FLORIANOPOLIS, BRASIL;-26.30444;-48.84556
1794;SUP ESTRELA DO MAR;88000000;RUA JAQUITIBA, 135, BOMBINHAS, BRASIL;-26.30444;-48.84556
2026;MERCADO DA NONNA;83402000;RODOVIA DA UVA, 3456, COLOMBO, BRASIL;-26.30444;-48.84556
2226;STA HELENAGUARAITUB;83410000;RUA GENESIO MORESCHI, 863, COLOMBO, BRASIL;-26.30444;-48.84556
2264;STALL XAXIM;81770000;RUA FRANCISCO DEROSSO, 4693, CURITIBA, BRASIL;-26.30444;-48.84556
2266;STALL JD CURITIBA;83040420;RUA ALMIRANTE ALEXANDRINO, 2327, SAO JOSE DOS PINHAIS, BRASIL;-26.30444;-48.84556
2267;STALL BR 277;83005970;RUA VANDERLEI MORENO,  5500 BR277, SAO JOSE DOS PINHAIS, BRASIL;-25.5302;-49.20836
2297;SUP PALMEIRA;82220170;RUA ACRMELINA CAVASSIN, 201, CURITIBA, BRASIL;-26.30444;-48.84556
2314;SUP G;80210060;RUA BRASILIO ITIBERE, 377, CURITIBA, BRASIL;-26.30444;-48.84556
2334;SUP OVERSUPER;83414200;RUA ANTONIO PUPPI, 304, COLOMBO, BRASIL;-26.30444;-48.84556
3026;SUP KUPAS;89247000;AVENIDA JARAGUA DO SUL, N. 2279, BALNEARIO BARRA DO SUL, BRASIL;-26.4492351;-48.6223822
3040;SUP PROVESI;88390000;RUA VALDEMAR FRANCISCO,434, BARRA VELHA, BRASIL;-26.30444;-48.84556
3073;MERCE ESQUINA;89255300;RUA ROBERTO ZIEMANN, N.295, JARAGUA DO SUL, BRASIL;-26.4593794;-49.104942
3089;MERC NOSSO PONTO;89108000;RUA 11 DE NOVEMBRO, N. 2084, MASSARANDUBA, BRASIL;-26.6073992;-49.8279
3142;SUP UNIAO - COLONIA;89290000;AVENIDA ARGOLO, N. 952, SAO BENTO DO SUL, BRASIL;-26.2468502;-49.3843682
3143;SUP UNIAO;89290000;AVENIDA NEREU RAMOS, 86, SAO BENTO DO SUL, BRASIL;-26.2513034;-49.3842027
3149;MERC PANTANAL;83535000;ESTRADA DE CERNE, 14915, CAMPO MAGRO, BRASIL;-26.30444;-48.84556
3155;SUP GROSSL;89290000;RUA HANS DIETER SCHMIDT, N. 678, SAO BENTO DO SUL, BRASIL;-26.2450599;-49.3498757
3310;SUP MEES*;89278000;RUA ROBERTO SEIDEL, 732, CORUPA, BRASIL;-26.4377474;-49.2714749
3360;MERC CONSTANT;89237100;RUA BENTO TORQUATO DA ROCHA, SN, JOINVILLE, BRASIL;-26.295336;-48.9000115
3448;SUP FARIAS;89248000;AV PARANA, 706, GARUVA, BRASIL;-26.282166;-48.8404458
3449;ARMAZEM RIZENTAL;89225326;RUA ARQUITETO GRORG KELLER, 162, JOINVILLE, BRASIL;-26.30444;-48.84556
3466;SUP JOENI;89300000;RUA PEDRO LIEBEL, 982, MAFRA, BRASIL;-26.30444;-48.84556
3512;SUPERMERCADO TONET;83350000;RUA XV DE NOVEMBRO, 352, MORRETES, BRASIL;-26.2892036;-48.8944532
3516;MERC LEVI;83255000;RUA AV  EDO PUHL,410, PONTAL DO PARANA, BRASIL;-26.30444;-48.84556
3520;SUP MARTINI;89270000;RUA 28 AGOSTO,3035, GUARAMIRIM, BRASIL;-26.4703871;-48.986302
3541;SUP FUTURAMA;89460000;RUA CORONEL ALBUQUERQUE, 409, CANOINHAS, BRASIL;-26.1726869;-50.3911412
3549;SUP FIGURA;89460000;RUA ANTONIO SALOMON, 55, CANOINHAS, BRASIL;-26.30444;-48.84556
3552;SUP VEIGA;89340000;RUA SENADOR IRINEU BORHAUSEN, 95, ITAIOPOLIS, BRASIL;-26.30444;-48.84556
3554;SUP MEG;89370000;RUA PAPA JOAO XXIII, 281, PAPANDUVA, BRASIL;-26.2765938;-48.8223558
3597;SUP SOL E MAR II*;89249000;RUA ITAIOPOLIS, 1340, ITAPOA, BRASIL;-26.107869;-48.6042765
3598;MERC BRISA DO MAR;89249000;AV BRASIL, 1860, ITAPOA, BRASIL;-26.1185252;-48.601801
3646;MERCADO ALIANCA;89247000;RUA DA SAUDADE, 1436, BALNEARIO BARRA DO SUL, BRASIL;-26.4311827;-48.6323798
3757;MERC MILCHESKI;89294000;RUA PRINCIPAL, SN, CAMPO ALEGRE, BRASIL;-26.30444;-48.84556
3798;SUP COPAL*;88110000;RUA LEOBERTO LEAL, 1280, SAO JOSE, BRASIL;-26.30444;-48.84556
3825;SUP SANTO AMARO*;88140000;RUA LEOPOLDO BROERING, 3117, SANTO AMARO DA IMPERATRIZ, BRASIL;-26.30444;-48.84556
3884;SUP SANTA LUZIA;89251970;RUA CARLOS FREDERICO RAMTHUM N.17377, JARAGUA DO SUL, BRASIL;-26.30444;-48.84556
3892;SUP SILVA;88215000;AV VEREADOR JOAO DA LUZ, 240, BOMBINHAS, BRASIL;-26.30444;-48.84556
3940;MERC MENUDO S SEBAST;83407150;RUA ALFREDO MIGUEL BADUY, 368, COLOMBO, BRASIL;-26.30444;-48.84556
3942;SUP BRISA DO MAR *;88215000;AV. AROEIRA DA PRAIA, 1626, BOMBINHAS, BRASIL;-26.30444;-48.84556
3948;MERCE AZEVEDO;89240000;RUA FRANCISCO MASCARENHAS, 2849, SAO FRANCISCO DO SUL, BRASIL;-26.227505;-48.5840624
3976;MERC IDEAL;89237375;RUA JOAO CARLOS GOMES DE OLIVEIRA, SN, JOINVILLE, BRASIL;-26.2927011;-48.9100146
3992;MERC SERVILAR*;89490000;AV RIGESA, 1349, TRES BARRAS, BRASIL;-26.1124947;-50.3103305
4036;SUP LINO*;88828000;AV CRICIUMA, 519, BALNEARIO RINCAO, BRASIL;-26.30444;-48.84556
4054;MERC VILA;88385000;AV. ANTONIO JOAQUIM TAVARES, 155, PENHA, BRASIL;-26.30444;-48.84556
4194;MERC KALFELS;89217420;RUA INAMBU, 2962, JOINVILLE, BRASIL;-26.2730733;-48.8822798
4279;MERC PARADOR ILHA;88058600;ESTRADA: DOM JOAO BECKER, 186, FLORIANOPOLIS, BRASIL;-26.30444;-48.84556
4360;ROSA PALHOCA;88131200;RUA VEREADOR OSVALDO OLIVEIRA, 4004, PALHOCA, BRASIL;-26.30444;-48.84556
4372;MERC MONDINI;89206020;RUA 1 DE MAIO, 321, JOINVILLE, BRASIL;-26.3021003;-48.8191039
4500;MERC DO VALLE;89213480;RUA CERRO AZUL, 637, JOINVILLE, BRASIL;-26.3330835;-48.868015
4505;MERC JANAINA*;89247000;AV SAO FRANCISCO, 132, BALNEARIO BARRA DO SUL, BRASIL;-26.30444;-48.84556
5060;MINI MERC GUESSER;88110000;AVENIDA BRASIL, 330, SAO JOSE, BRASIL;-26.30444;-48.84556
5064;COM ALIM LUSIANDRO;84016600;RUA DR CLYCEU CARLOS DE MACEDO,  160, PONTA GROSSA, BRASIL;-25.574679630574;-50.1411014184691
5087;MERC BRASIL;89221561;RUA BRASIL, 733, JOINVILLE, BRASIL;-26.2700261;-48.840423
5171;MINI MERC PRAIA SUL*;88390000;AVENIDA ITAJUBA, 814, BARRA VELHA, BRASIL;-26.30444;-48.84556
5228;SUP BARCELONA;83750000;RUA CORONEL DULCIDIO PEREIRA, 48, LAPA, BRASIL;-26.30444;-48.84556
5257;COMERCIAL CUBATAO;83290971;ESTRADA CUBATAO, S/N, GUARATUBA, BRASIL;-26.30444;-48.84556
5324;SUP TOSCAN;83430000;RUA DIAMIRO OLICHESKI DA SILVA, 24, CAMPINA GRANDE DO SUL, BRASIL;-25.30556;-49.5528
5478;MERCADO CAPRI;89240000;AVENIDA ESTADOS UNIDOS, 1212, SAO FRANCISCO DO SUL, BRASIL;-26.1866603;-48.5675566
5498;SUPER BARCELONA II;83750000;AV ALOISIO LEONI, 900, LAPA, BRASIL;-26.30444;-48.84556
5541;MERC CARLAO;89240000;RUA JOINVILLE, 466, SAO FRANCISCO DO SUL, BRASIL;-26.2597871;-48.6241391
5547;MERC PANIF BRAATZ;89230654;RUA CIDADE DE MEDIANEIRA, 143, JOINVILLE, BRASIL;-26.3312428;-48.7978191
5556;SUP TURKOT;89440000;AVENIDA 22 DE JULHO 1154, IRINEOPOLIS, BRASIL;-26.2434731;-50.7942837
5560;SUPER MICHEL;81280080;RUA PADRE JOSE LOPACINSKI, 740, CURITIBA, BRASIL;-26.30444;-48.84556
5573;FRUTEIRA DO PORTO*;89400000;RUA PRUDENTE DE MORAES, 419, PORTO UNIAO, BRASIL;-26.2309427;-51.813934
5596;SUPERMERC REVIVER*;89400000;RUA SALOMAO YARED, 229, PORTO UNIAO, BRASIL;-26.2509397;-51.710457
5621;SUPER CHIPITOSKI*;89400000;RUA EXPEDICIONARIO EDMUNDO ARRABAR, 1478, PORTO UNIAO, BRASIL;-26.2524292;-51.70446
5693;MERCADO SCHMIDT;89400000;RUA DEZ DE NOVEMBRO, 74, PORTO UNIAO, BRASIL;-26.3868142;-50.8795505
5824;MERCADO MAY;89230773;RUA VICENTE FERREIRA, 128, JOINVILLE, BRASIL;-26.3167591;-48.8052126
5833;ARMAZEM DA MARIA;81690200;ROD BR 116 KM 102 NUMERO, 14397, CURITIBA, BRASIL;-26.30444;-48.84556
5964;SUPER CENTRAL;88440000;AV 22 DE JULHO, 780, IRINEOPOLIS, BRASIL;-26.2434731;-50.7942837
5976;MERCADO RENASCER;83280000;RUA IVAI, 586, GUARATUBA, BRASIL;-26.366894;-48.8458024
6092;MERCADO PATO BRANCO;89240000;AV SANTA CATARINA, 139, SAO FRANCISCO DO SUL, BRASIL;-26.2256197;-48.5020425
6167;MERCADO ECONOMIA*;89224010;RUA CORONEL VIEIRA, 1924, JOINVILLE, BRASIL;-26.2598019;-48.8072059
6171;SUPER GRAO PARA;89227473;RUA TUIUTI, 669, JOINVILLE, BRASIL;-26.2655428;-48.8213166
6217;SUPER FUTURAMA;89490000;AVENIDA RIGESSA, 2528, TRES BARRAS, BRASIL;-26.30444;-48.84556
6335;SBB;89107000;RUA FREDERICO WEEGE, 1334, POMERODE, BRASIL;-26.30444;-48.84556
6394;EMPORIO DO JULIO;89218500;RUA GUILHERME, 1260, JOINVILLE, BRASIL;-26.2742644;-48.8674738
6444;MERCADO LEO;89466244;RUA BENTO DE LIMA, 239, CANOINHAS, BRASIL;-26.181142;-50.3753627
6462;MERCADO POSSENTI;89237376;RUA JOAO SSANCHO MOREIRA, 270, JOINVILLE, BRASIL;-26.30444;-48.84556
6475;DIASVILLE;89229101;RUA FATIMA, 750, JOINVILLE, BRASIL;-26.3331787;-48.8167951
6491;SUPER CASTELO*;89380000;RUA BARAO CERRO AZUL, 1142, MONTE CASTELO, BRASIL;-26.4610582;-50.2285661
6493;MERCADO ALMEIDA;84620000;RUA GETULIO VARGAS, SN, CRUZ MACHADO, BRASIL;-26.30444;-48.84556
6501;MERCADO DAMILLE*;84620000;AV MANOEL RIBAS, SN, CRUZ MACHADO, BRASIL;-26.30444;-48.84556
6529;MERCADO GLORIA;89240000;ESTRADA GERAL VILA DA GLORIA, 8020, SAO FRANCISCO DO SUL, BRASIL;-26.24333;-48.63806
6628;SUPER CORDEIRO;89480000;RUA NARCIZO RUTHES, 401, MAJOR VIEIRA, BRASIL;-26.30444;-48.84556
6629;MERCADO SOUZA;89284430;RUA JORGE LIETZ, 35, SAO BENTO DO SUL, BRASIL;-26.2099953;-49.3650118
6630;SUPER DEDA;83750000;RUA AMAZONAS, 7488, LAPA, BRASIL;-26.2940386;-48.8387365
6669;EMPORIO ECONOMICO;88337300;RUA QUINTA AVENIDA, 700, BALNEARIO CAMBORIU, BRASIL;-26.30444;-48.84556
6728;SUPERMERCADO DEMEZIO;88054440;RUA JOAO LUIZ DA SILVA BRITO, 373, FLORIANOPOLIS, BRASIL;-26.30444;-48.84556
6740;MERCEARIA FERREIRA;89270000;RUA GUARAMIRIM, 1943, GUARAMIRIM, BRASIL;-26.2840892;-48.8375812
6742;SUPER BRONGIEL;83900000;RUA LEDY AFONSO RODERJAN, 1345, SAO MATEUS DO SUL, BRASIL;-25.87417;-50.38278
6768;MERCADO BARATAO;84172100;R JERONIMO CABRAL PEREIRA AMARAL, 1954, CASTRO, BRASIL;-26.30444;-48.84556
6785;SUPER SEZINHO*;89160000;RUA BARAO DO RIO BRANCO, 33, RIO DO SUL, BRASIL;-26.2476297;-48.6344195
6803;PONTO VERDE;84020000;RUA AFONSO CELSO, 2440, PONTA GROSSA, BRASIL;-26.30444;-48.84556
6853;BAR E MERCEARIA T II;89214727;RUA FRANCISCO ALVES, 307, JOINVILLE, BRASIL;-26.344791;-48.8733093
6854;MERCADO DA TORRE;89213640;RUA REINALDO SCHNEIDER, 255, JOINVILLE, BRASIL;-26.336778;-48.8722386
6882;GIMENIS SUPERMERCADO;81650040;RUA CARLOS DE LEAT, 4325, CURITIBA, BRASIL;-26.30444;-48.84556
6919;MERCADO UNIAO*;88036002;RUA LAURO LINHARES, 345, FLORIANOPOLIS, BRASIL;-26.30444;-48.84556
7008;MERCADO PAVAO;89201300;RUA DR JOAO COLLIN, 538, JOINVILLE, BRASIL;-26.30444;-48.84556
7070;MERCADO PASDIORA;89300000;LOCALIDADE SALTINHO DO CANIVETE, SN, MAFRA, BRASIL;-26.30444;-48.84556
7125;SUP BRONGIEL MATRIZ;83900000;RUA PREFEITO EWALDO GAENSLY, 159, SAO MATEUS DO SUL, BRASIL;-25.87417;-50.38278
7160;SUPER FLORIANI;89248000;AV PARANA, 2036, GARUVA, BRASIL;-26.282166;-48.8404458
7194;SUPER RODRIGUES;88048000;RODOVIA SC 405, 2550, FLORIANOPOLIS, BRASIL;-26.30444;-48.84556
7212;MINI MERC BEIRA RIO;88061700;RUA GERAL, 2967, FLORIANOPOLIS, BRASIL;-26.30444;-48.84556
7240;SUPER NITEROI;89150000;RUA NITEROI, 968, PRESIDENTE GETULIO, BRASIL;-26.30444;-48.84556
7349;SUPER SOUZA;89295000;RUA AUGUSTO BARSCH, 176, RIO NEGRINHO, BRASIL;-26.2554409;-49.5395268
7388;MERCADO MINI MAIS;89205101;RUA ALBANO SCHMIDT, 1651, JOINVILLE, BRASIL;-26.3003166;-48.8219651
7393;SUPER BUREI*;89270000;RUA 28 DE AGOSTO, 528, GUARAMIRIM, BRASIL;-26.4734078;-48.9964106
7401;SUPER COMPRE FACIL;83503300;RUA NOSSA SENHORA DE FATIMA, 101, ALMIRANTE TAMANDARE, BRASIL;-26.30444;-48.84556
7438;MERCADO MACEDO;83708350;RUA MANOEL RIBAS, 2275, ARAUCARIA, BRASIL;-26.3167696;-48.7994639
7448;MERCADO SCHIMITT;89233675;RUA WALDOMIRO JOSE BORGES, 4200, JOINVILLE, BRASIL;-26.30444;-48.84556
7515;SUPER CENTRAL;89294000;RUA CORONEL BENTO DE AMORIM, 335, CAMPO ALEGRE, BRASIL;-26.1930058;-49.2644819
7539;MERCADO DOM GREGORIO;89224485;RUA RIACHO DE SANTANA, 579, JOINVILLE, BRASIL;-26.2624415;-48.8001934
7560;MERCADO NOVO CAMINHO;89283192;RUA AUGUSTO WUNDERWALD, 2400, SAO BENTO DO SUL, BRASIL;-26.2306256;-49.3343853
7740;MERC N SEN APARECIDA;89370000;RUA TENENTE ARY RAUEN, 596, PAPANDUVA, BRASIL;-26.4085858;-50.1378968
10013;MERCADO JONCK;89237500;RUA MARIA DE LURDES BACHTOLD, 11, JOINVILLE, BRASIL;-26.2778156;-48.9002578
10089;SUP MICHELS CENTRO*;89150000;RUA CURT HERING, 975, PRESIDENTE GETULIO, BRASIL;-26.30444;-48.84556
10126;SUPER CASTELO II;89370000;RUA GOVERNADOR JORGE LACERDA, 3582, PAPANDUVA, BRASIL;-26.4909269;-49.781436
10198;MERCEARIA NORTE SUL;83535000;RUA NARCISOS, 82, CAMPO MAGRO, BRASIL;-26.30444;-48.84556
10208;WERNER SCHROEDER;89239400;RODOVIA SC 301, 8778, JOINVILLE, BRASIL;-26.30444;-48.84556
10295;SAMER SUPERMERCADOS*;88063100;RUA GRAMAL, 1753, FLORIANOPOLIS, BRASIL;-26.30444;-48.84556
10549;SUPER ECONOMIA*;89227195;RUA PRESIDENTE HEUSE, 498, JOINVILLE, BRASIL;-26.2720693;-48.8216851
10630;SUPER DRUZIKI;83604200;AVENIDA PORCELANA, 267, CAMPO LARGO, BRASIL;-26.30444;-48.84556
10650;SUPER GOLL;83900000;RUA  ALTINO FERREIRA DE LIMA , SN, SAO MATEUS DO SUL, BRASIL;-25.87417;-50.38278
10656;VEM QUE TEM II;89249000;AV CELSO RAMOS, 1260, ITAPOA, BRASIL;-26.674386;-48.6168274
10709;COM ESPACO BRASIL;88330058;AV BRASIL, 2750, BALNEARIO CAMBORIU, BRASIL;-26.30444;-48.84556
10757;MERC TROPICAL SUL*;88047001;AV JORGE LARCERDA, 2901, FLORIANOPOLIS, BRASIL;-26.30444;-48.84556
10774;MERCADO OSMARI;88220000;RUA 1200, 454, ITAPEMA, BRASIL;-26.30444;-48.84556
10775;MERCADO OSMARI II;88220000;AVENIDA NEREU RAMOS, 580, ITAPEMA, BRASIL;-26.30444;-48.84556
10787;SUPER HONY;83706230;RUA AVESTRUZ, 1326, ARAUCARIA, BRASIL;-26.30444;-48.84556
10791;MERCADO GAIVOTA;89247000;JOSE TOMAZZA DE SOUZA,179, BALNEARIO BARRA DO SUL, BRASIL;-26.45556;-48.61194
10800;SUPER DOMBROSKI;84150000;RUA DEPUTADO JOAO FERREIRA  NEVES, 85, SAO JOAO DO TRIUNFO, BRASIL;-25.68333;-50.29722
10812;MERCADO FIRENZI;89251970;RUA ADELINA KLEIN EHLERT, S/N, JARAGUA DO SUL, BRASIL;-26.4856672;-49.1149889
10838;COMERCIAL GORDYA;83900000;RODOVIA 151 KM 444, SAO MATEUS DO SUL, BRASIL;-26.30444;-48.84556
10855;SABOR COM SAUDE;80240001;AVENIDA SETE DE SETEMBRO, 5494, CURITIBA, BRASIL;-26.30444;-48.84556
10869;MERC SAO CRISTOVAO;89490000;AV ABRAAO MUSSI, 2807, TRES BARRAS, BRASIL;-26.1518753;-50.3632172
10983;SM GRANMAX;83604480;RUA TEODORO AUGUSTYN, 337, CAMPO LARGO, BRASIL;-26.30444;-48.84556
10985;MERCADO CAROLINA;89211380;RUA COPACABANA, 1389, JOINVILLE, BRASIL;-26.3359911;-48.8574194
11022;SUPER GUMZ JARAGUA;89261700;RUA GUSTAVO GUMZ, 548, JARAGUA DO SUL, BRASIL;-26.5797809;-49.1404033
11023;SUPER GUMZ POMERODE*;89107000;RUA LUIZ ABRY, 1387, POMERODE, BRASIL;-26.30444;-48.84556
11133;MERCADO BONIFACIO;89040400;RUA DIVINOPOLIS, 588, BLUMENAU, BRASIL;-26.30444;-48.84556
11191;SUPERMER TRIUNFO*;84150000;RUA PREFEITO PEDRO F DAS NEVES, 661, SAO JOAO DO TRIUNFO, BRASIL;-25.68333;-50.29722
11194;JACIRA EMPREENDIMENT;89460000;RUA OTAVIO FERREIRA DA SILVA, CANOINHAS, BRASIL;-26.1817424;-50.3633294
11244;MERCADO CONSTANTE;89228830;"RUA: EVARISTO JOAO HECK; 180, JOINVILLE, BRASIL";-26.2858624;-48.7812538
11254;SUPER BARCELONA III;83750000;RUA BARRAO DO RIO BRANCO, 1421, LAPA, BRASIL;-26.30444;-48.84556
11323;MERCADO ORSI;89066700;RUA CARLOS SEBASTIAO FISCHER, 210 SL 01, BLUMENAU, BRASIL;-26.30444;-48.84556
11329;MERCADO NOVO MIRO;89203500;RUA: MAJOR NAVARRO LINS, JOINVILLE, BRASIL;-26.3156882;-48.8525594
11341;MERCADO KALINHO;89226260;RUA ANTONIO JORGE CECYN, 393, JOINVILLE, BRASIL;-26.2405233;-48.8154938
11366;SUPERMERCADO BARRIM;88390000;RUA JOSE BONIFACIO PIRES, 194, SAO JOAO DO ITAPERIU, BRASIL;-26.5778712;-48.754547
11492;MERCADO JJB;89065030;"RUA: 5 DE OUTUBRO; 366, BLUMENAU, BRASIL";-26.30444;-48.84556
11527;MERCADO IGUACU*;89208301;"RUA: PETROPOLIS; 1298, JOINVILLE, BRASIL";-26.3455761;-48.8340935
11572;SUPERBOM SUPERMERCAD;89285705;RUA JOAO LINZMEYER ,17, SAO BENTO DO SUL, BRASIL;-26.2162444;-49.4068535
11587;MERCEARIA BOSCHETTO;83880000;RUA JORGE WIZENTAL, 138, RIO NEGRO, BRASIL;-26.30444;-48.84556
11684;SUPERMERCAD VANZUIT*;89051600;RUA JULIO MICHEL, 730, BLUMENAU, BRASIL;-26.30444;-48.84556
11718;ASSIS PIEN;83860000;RUA  AMAZONAS, 89, PIEN, BRASIL;-26.2940386;-48.8387365
11719;ASSIS MATRIZ;83810000;RUA FRANCISCO DE ASSIS PEREIRA MAGA, 337, MANDIRITUBA, BRASIL;-26.30444;-48.84556
11721;ASSIS SUP QUITANDINH;83840000;AV FERNANDES DE ANDRADE, 1545, QUITANDINHA, BRASIL;-26.30444;-48.84556
11762;MERCADO ORIGINAL;88054600;ROD. TERTULIANO BRITO XAVIER, 480, FLORIANOPOLIS, BRASIL;-26.30444;-48.84556
11879;MERCADO CAPRI;89051001;RUA DAS MISSOES, 1870, BLUMENAU, BRASIL;-26.30444;-48.84556
11920;SUPERMERC. MAR AZUL;89240000;RUA ESTRADA GERAL S/N SALA 01, SAO FRANCISCO DO SUL, BRASIL;-26.24333;-48.63806
11938;DIASVILLE;89228271;RUA PONTE SERRADA, 717, JOINVILLE, BRASIL;-26.2750396;-48.8056381
12048;MERCADO SANDI;88220000;RUA MARGINAL OESTE, 7990, ITAPEMA, BRASIL;-26.30444;-48.84556
12155;SUPER SUL DO RIO*;88135100;RUA AV BO JESUS DE NAZARE, 1294, PALHOCA, BRASIL;-26.30444;-48.84556
12300;MERCADO CONTESTADO;89520000;FREI GASPAR, 2000, CURITIBANOS, BRASIL;-26.30444;-48.84556
12356;MERCADO KURTEN;89220801;RUA DOS SUICOS, 2500, JOINVILLE, BRASIL;-26.2743484;-48.8912743
12408;MERCADO ELLER;89224400;RUA PAPA JOAO PAULO I , 275, JOINVILLE, BRASIL;-26.2690889;-48.8053677
12413;MERCADO OLIVEIRA;89226812;RUA PROFETA ELIAS, 67, JOINVILLE, BRASIL;-26.2186942;-48.8004562
12431;SUPER ALVORADA PRSV*;88508109;AV PRESIDENTE VARGAS, 796, LAGES, BRASIL;-26.501204;-48.8409198
12442;SUPER QUERENCIA;89480000;VEREADOR CARLOS KARVAT, 1202, MAJOR VIEIRA, BRASIL;-26.30444;-48.84556
12445;MERCADO DO LEO;89288600;RUA DA URCA, 425, SAO BENTO DO SUL, BRASIL;-26.30444;-48.84556
12470;MERCADO MERCOCANTO;88190000;RUA HIPOLITO DE AZEVEDO, 481, GOVERNADOR CELSO RAMOS, BRASIL;-26.30444;-48.84556
12505;MERCADO ESTEVAN;89490000;AV.ABRAAO MUSSI, 1762, TRES BARRAS, BRASIL;-26.1518753;-50.3632172
12548;SUPERMERCADO LUDVIG*;88525000;MANOEL ANTUNES PESSOA , 313, LAGES, BRASIL;-26.30444;-48.84556
12594;SUPERMERCADOS BALDAN;88190000;AV GAUCHOS, 1101, GOVERNADOR CELSO RAMOS, BRASIL;-26.30444;-48.84556
12633;MERCADO MARIANO;89212500;RUA PORTO RICO, 644, JOINVILLE, BRASIL;-26.3483017;-48.8535299
12638;SUP. SUL O RIO LJ 3;88135100;AVENIDA BOM JESUS DE NAZARE, 444, PALHOCA, BRASIL;-26.30444;-48.84556
12655;MERCADO LIERMANN;89223100;RUA TENENTE ANTONIO JOAO , 1704, JOINVILLE, BRASIL;-26.261202;-48.8450702
12775;AGRIMAR I;81470075;RUA ENETTE DUBARD, 281, CURITIBA, BRASIL;-26.30444;-48.84556
12830;SUPER FUCHS ITAIOPOL;89340000;RUA ALEXANDRE RICARDO WOREL, 43, ITAIOPOLIS, BRASIL;-26.30444;-48.84556
12843;MERCADINHO DA PRAIA;88495000;RUA GERAL PRAIA DA FERRUGEM, SN, GAROPABA, BRASIL;-28.706684480235;-48.6228072998276
12863;SUPER SEU NEN0;89240000;ROD DUQUE DE CAXIAS, 2009, SAO FRANCISCO DO SUL, BRASIL;-26.24333;-48.63806
12883;SUPER ASA BRANCA;83209230;RUA FRANCISCO COMINESE, SN, PARANAGUA, BRASIL;-26.30444;-48.84556
12884;MERCADO 5 M;89249000;AVENIDA DOS HENRIQUE 2, 380, ITAPOA, BRASIL;-26.30444;-48.84556
12916;SUPER TRIUNFO 1;82220170;RUA CARMELINA CAVASSIN, 850, CURITIBA, BRASIL;-26.30444;-48.84556
12919;SUPER TRIUNFO 3;82220980;AVENIDA ANITA GARIBALDI, 4654, CURITIBA, BRASIL;-26.30444;-48.84556
12939;DOCA MERCADO IV;89211585;UBERABA, 207, JOINVILLE, BRASIL;-26.3283135;-48.8439459
13018;SUPERMERCADO MALLU;89520000;AVENIDA LEOBERTO LEAL, S/N, CURITIBANOS, BRASIL;-26.30444;-48.84556
13046;EL TROPICO;88311140;SEBASTIAO ROMEU SOARES, 64, ITAJAI, BRASIL;-26.30444;-48.84556
13055;VIZINHAO 2;89230648;RUA DILSO FUNARO, 872, JOINVILLE, BRASIL;-26.30444;-48.84556
13086;MERCADO POFFO;88330272;RUA 3.300, 640, BALNEARIO CAMBORIU, BRASIL;-26.30444;-48.84556
13144;MEG SUPERMERCADO;89370000;RUA SERGIO GLEVINSKI, 167, PAPANDUVA, BRASIL;-26.4105498;-50.143226
